platform_label,platform_class,platform_type,name,short_name,datasrc_platform_cd,data_timezone,lat,lon,bounding_area,bounding_area_hue,route,route_hue,state,sub_region,region,provider,provider_url,provider_type,data_source,data_source_url,url,has_obs_data,app_id,icon,mode,status,status_date
APL_LPGlider,MLOC,Glider,UW/NANOOS Seaglider La Push Line,APL-UW La Push Glider,,US/Pacific,47.514,-125.925,,0,"-124.9500,47.9667::-127.0000,47.0000",0,Washington,,La Push,APL-UW,http://www.nanoos.org/,Academic,IOP-APLUW,http://iop.apl.washington.edu/seaglider/index.php?glider=187,http://wavechasers.apl.washington.edu/projects/active-projects/nemo,false,GliderLaPush,seaglider_default,all,online,0
CMOP_SWWAGlider,MLOC,Glider,CMOP/NANOOS Phoebe Glider SW Wash. (Quinault) Transect,CMOP SW WA Glider,,US/Pacific,47.18,-124.7,,0,"-125.0000,47.0167::-125.0000,47.1833::-124.5480,47.2917::-125.0000,47.3333::-125.0000,47.5167::-124.6167,47.4333::-125.0000,47.3333::-125.0000,47.1833::-124.4833,47.1083::-125.0000,47.0167::-125.0000,46.8667::-124.3667,46.8667",0,Washington,,Quinault,CMOP,http://www.stccmop.org/,Academic,NANOOS-CMOP,http://www.stccmop.org/datamart/observation_network/glider,http://www.stccmop.org/datamart/observation_network/glider,false,,slocum_default,all,offline-temporary,1445043600
FHL_Pefsurvey,MLOC,Cruise,San Juans Pelagic Ecosystems Function (PEF) survey,San Juans PEF Survey,,US/Pacific,48.6,-123.06,"-122.8,48.38::-122.8,48.8::-123.27,48.7::-123.1,48.46::-122.8,48.38",0,,0,Washington,,"Puget Sound, Strait of Juan de Fuca",FHL-UW,http://depts.washington.edu/fhl/,Academic,FHL-UW,,http://habu.apl.washington.edu/mayorga/pef/index.html,false,,cruise_default,all,online,0
HCDOP_Cruises,MLOC,Cruise,Hood Canal Dissolved Oxygen Program Cruises,,,US/Pacific,47.677,-122.88,"-122.614632,47.940727::-122.660294,47.931526::-122.653084,47.921864::-122.655144,47.903687::-122.639694,47.890335::-122.616005,47.889645::-122.622871,47.878361::-122.630081,47.878361::-122.637978,47.865925::-122.681236,47.868690::-122.693253,47.866158::-122.683296,47.847496::-122.693253,47.827679::-122.704926,47.825375::-122.724152,47.809696::-122.748871,47.802547::-122.758827,47.748791::-122.774620,47.737476::-122.783890,47.703293::-122.772903,47.692894::-122.811012,47.682034::-122.833328,47.692661::-122.824745,47.710918::-122.813759,47.717617::-122.811012,47.746250::-122.798996,47.763790::-122.790070,47.806931::-122.812042,47.843349::-122.820282,47.841274::-122.822685,47.826984::-122.827148,47.819611::-122.818222,47.804623::-122.826462,47.787327::-122.843971,47.779713::-122.853241,47.782482::-122.848091,47.803699::-122.856331,47.808773::-122.869034,47.803009::-122.867317,47.780865::-122.862167,47.767021::-122.850494,47.761715::-122.850494,47.750637::-122.854614,47.735630::-122.863884,47.744865::-122.872810,47.742325::-122.884827,47.730087::-122.885857,47.711380::-122.891006,47.703293::-122.882080,47.688503::-122.909889,47.665852::-122.901993,47.662846::-122.904739,47.646656::-122.924309,47.643417::-122.983017,47.614494::-123.038635,47.545483::-123.059921,47.502823::-123.110046,47.460594::-123.160858,47.369522::-123.159485,47.353710::-123.138885,47.345337::-123.105927,47.364410::-123.075714,47.352779::-123.070221,47.348129::-123.031769,47.350452::-122.971344,47.379288::-122.909546,47.391842::-122.887573,47.410896::-122.877960,47.411362::-122.871094,47.425301::-122.901306,47.420654::-123.020096,47.376965::-123.026276,47.361618::-123.051682,47.364876::-123.079147,47.376034::-123.112106,47.376499::-123.119659,47.391376::-123.068848,47.459202::-123.032455,47.496326::-123.030396,47.513027::-122.965851,47.585789::-122.941818,47.589493::-122.920532,47.607090::-122.915726,47.621437::-122.860107,47.639950::-122.854614,47.649200::-122.828522,47.657063::-122.838135,47.638096::-122.752304,47.670475::-122.748184,47.720387::-122.713852,47.767944::-122.691879,47.781788::-122.683640,47.802547::-122.622528,47.838051::-122.612228,47.857403::-122.584076,47.857403::-122.584763,47.845425::-122.582703,47.822376::-122.564850,47.822376::-122.573090,47.854637::-122.577209,47.882275::-122.595749,47.919102::-122.619781,47.927387",0,,0,Washington,,Puget Sound,HCDOP,http://www.hoodcanal.washington.edu/,Non-Profit,NANOOS-APL,,http://www.hoodcanal.washington.edu/,false,CruiseHcdop,cruise_default,all,online,0
OSU_GliderBob,MLOC,Glider,OSU COAS NH Bob Glider,OSU Bob Glider,,US/Pacific,44.65,-124.6,,0,"-124.10,44.65::-125.12,44.65",0,Oregon,,Central Oregon Coast,OSU,http://ceoas.oregonstate.edu,Academic,NANOOS-OSU,http://gliderfs2.coas.oregonstate.edu/gliderweb/,http://gliderfs2.coas.oregonstate.edu/gliderweb/,false,GliderOsuBob,slocum_default,all,offline-permanent,1445036400
OSU_GliderJane,MLOC,Glider,OSU COAS NH Jane Glider,OSU Jane Glider,,US/Pacific,44.65,-124.75,,0,"-124.10,44.65::-125.12,44.65",0,Oregon,,Central Oregon Coast,OSU,http://ceoas.oregonstate.edu,Academic,NANOOS-OSU,http://gliderfs2.coas.oregonstate.edu/gliderweb/,http://gliderfs2.coas.oregonstate.edu/gliderweb/,false,GliderOsuJane,slocum_default,all,offline-permanent,1445036400
PRISM_Cruises,MLOC,Cruise,PRISM Cruises,,,US/Pacific,48.1981,-123.3325,"-124.947510,48.231991::-124.727783,48.385441::-124.609680,48.381794::-124.356995,48.285023::-124.208679,48.252113::-124.041138,48.175243::-123.711548,48.162422::-123.250122,48.111099::-123.170471,48.151428::-123.099060,48.144096::-123.011169,48.074409::-122.824402,48.134933::-122.755737,48.145931::-122.739258,48.114765::-122.807922,48.094593::-122.623901,47.890564::-122.637634,47.866615::-122.700806,47.870300::-122.689819,47.827908::-122.747498,47.800243::-122.777710,47.698673::-122.840881,47.700520::-122.791443,47.807621::-122.821655,47.846344::-122.876587,47.787327::-122.860107,47.741169::-122.893066,47.735630::-122.890320,47.693127::-122.915039,47.650589::-122.991943,47.613571::-123.071594,47.502357::-123.162231,47.392773::-123.145752,47.342545::-123.123779,47.187847::-123.077087,47.096306::-122.917786,47.062637::-122.912292,47.144897::-122.813416,47.180378::-122.788696,47.122475::-122.711792,47.094437::-122.629395,47.152370::-122.544250,47.264320::-122.492065,47.284821::-122.439880,47.273640::-122.409668,47.288544::-122.437134,47.318344::-122.316284,47.357433::-122.417908,47.578381::-122.376709,47.620975::-122.437134,47.667236::-122.379456,47.737476::-122.406921,47.814999::-122.330017,47.879513::-122.308044,47.966019::-122.236633,47.980728::-122.225647,48.037693::-122.387695,48.145931::-122.379456,48.242966::-122.368469,48.297813::-122.486572,48.361725::-122.634888,48.416443::-122.865601,48.425556::-123.123779,48.478382::-123.255615,48.409149::-123.554993,48.312428::-123.722534,48.347122::-123.947754,48.390915::-124.439392,48.531158::-124.881592,48.665569::-125.271606,48.407326",0,,0,Washington,,Puget Sound,PRISM-UW,http://www.prism.washington.edu,Academic,NANOOS-APL,,http://prism.washington.edu/story/PRISM+Cruises,false,CruisePrism,cruise_default,all,online,0
WADOE_Ferry1,MLOC,Ferry,Victoria Clipper Ferry in-situ Sensors,WADOE Victoria Clipper,,US/Pacific,48.2504,-123.0415,,0,"-122.3535,47.6134::-122.4219,47.6142::-122.4301,47.6152::-122.4361,47.6173::-122.4418,47.6209::-122.4466,47.6250::-122.4520,47.6327::-122.4540,47.6478::-122.4418,47.8635::-122.4431,47.8667::-122.4449,47.8693::-122.4945,47.9378::-122.4963,47.9394::-122.5004,47.9408::-122.6112,47.9702::-122.6130,47.9714::-122.6139,47.9729::-122.6571,48.1214::-122.6595,48.1236::-122.6637,48.1258::-122.8710,48.2154::-122.8792,48.2173::-123.3922,48.3220::-123.3953,48.3231::-123.3973,48.3241::-123.3984,48.3252::-123.3990,48.3266::-123.3990,48.3307::-123.3984,48.4061::-123.3974,48.4132::-123.3960,48.4166::-123.3899,48.4245::-123.3887,48.4252::-123.3867,48.4253::-123.3759,48.4252::-123.3738,48.4246::-123.3728,48.4240::-123.3722,48.4230::-123.3721,48.4224::-123.3722,48.4218",0,"Washington, British Columbia",,Puget Sound,WADOE,http://www.ecy.wa.gov/programs/eap/mar_wat/mwm_intr.html,State,WADOE,http://www.ecy.wa.gov/programs/eap/mar_wat/eops/clipper.html,http://www.ecy.wa.gov/programs/eap/mar_wat/eops/clipper.html,true,,victoria_clipper_default,all,online,0
WADOE_Floatplane,MLOC,Flight,Marine Flight Float Plane Monitoring,WADOE Marine Flights,,US/Pacific,47.99,-122.69,"-123.45,47.0::-123.45,49.0::-122.15,49.0::-122.15,47.0::-123.45,47.0::
-123.7,47.0::-123.7,46.35::-124.2,46.35::-124.2,47.1::-123.7,47.1::-123.7,47.0",0,,0,Washington,,"Puget Sound, SW WA Coast",WADOE,http://www.ecy.wa.gov/programs/eap/mar_wat/mwm_intr.html,State,WADOE,http://www.ecy.wa.gov/apps/eap/marinewq/mwdataset.asp,http://www.ecy.wa.gov/programs/eap/mar_wat/flights.html,false,,floatplane_default,all,online,0
AVHRR,RSP,Satellite,AVHRR Sea Surf. Temp. (West US - Day & Night),AVHRR,erdATssta,US/Pacific,43.5,-129.5,"-137.0,51.0::-121.0,51.0::-121.0,36.0::-137.0,36.0",0,,0,"Washington, Oregon, California, British Columbia",,West Coast,NOAA CoastWatch,http://coastwatch.pfeg.noaa.gov/,Federal,NOAA CoastWatch,,http://coastwatch.pfeg.noaa.gov/coastwatch/CWBrowser.jsp?edit=Grid+Data&gridDataSet=SST%2C+NOAA+POES+AVHRR%2C+LAC%2C+0.0125+degrees%2C+West+US%2C+Day+and+Night*&region=West+US&gridTimePeriod=1+day&synchronizeTimes=true,false,,satellite_default,all,online,1412035200
HFRADAR,RSP,Radar,HF Radar Surface Currents - OSU/NANOOS,HF Radar,cordc_hfradar,US/Pacific,44.0865,-124.1218,"-126.243896,46.573967::-123.991692,46.573959::-123.991692,45.951149::-123.958740,45.336700::-124.079590,44.746735::-124.189453,43.794880::-124.552002,42.859859::-124.359741,42.236652::-124.068604,41.607220::-124.156487,40.963299::-124.409180,40.363289::-123.859863,39.842281::-123.782959,39.592991::-123.843384,39.321548::-123.717041,38.920956::-123.112793,38.444981::-122.980949,38.030781::-122.585442,37.909531::-122.546997,37.566353::-122.437134,37.457417::-122.409660,37.230320::-122.162476,36.980614::-121.772461,36.914761::-122.025139,36.509628::-120.651848,35.200741::-120.668335,34.660320::-120.443108,34.470329::-119.926750,34.470329::-119.421379,34.379711::-119.234612,34.152721::-118.844604,34.011688::-118.542480,34.025341::-118.361206,33.706062::-118.146973,33.756313::-117.509758,33.321339::-117.279053,32.953362::-117.141724,32.532921::-116.889038,32.115150::-118.850098,31.840233::-119.970703,32.417065::-121.003418,33.045509::-121.926270,33.724339::-122.761230,34.470333::-123.552246,35.263561::-124.167480,36.031330::-124.760742,36.879620::-125.266113,37.735970::-125.683594,38.513786::-126.057129,39.419220::-126.364746,40.380028::-126.562500,41.393295::-126.650391,42.407234::-126.672363,43.500751::-126.628418,44.433781::-126.474609,45.367584::-126.298828,46.316586",0,,0,"Washington, Oregon, California, British Columbia",,West Coast,OSU,http://bragg.coas.oregonstate.edu/,Academic,CORDC,http://cordc.ucsd.edu/projects/mapping/api/,http://bragg.coas.oregonstate.edu/,false,HFRadar,hfradar,all,online,0
MODIS,RSP,Satellite,MODIS-Aqua Chlorophyll-a (West US - EXP),MODIS,erdMWchla,US/Pacific,43.7,-129.3,"-137.0,51.0::-121.0,51.0::-121.0,36.0::-137.0,36.0",0,,0,"Washington, Oregon, California, British Columbia",,West Coast,NOAA CoastWatch,http://coastwatch.pfeg.noaa.gov/,Federal,NOAA CoastWatch,,http://coastwatch.pfeg.noaa.gov/coastwatch/CWBrowser.jsp?edit=Grid+Data&gridDataSet=Chlorophyll-a%2C+Aqua+MODIS%2C+NPP%2C+0.0125+degrees%2C+West+US%2C+EXPERIMENTAL*&region=West+US&gridTimePeriod=1+day&synchronizeTimes=true,false,,satellite_default,all,online,0
OSU_XBand_01,RSP,Radar,X-Band Wave Imaging Marine Radar,OSU X-Band Radar,,US/Pacific,44.6135,-124.0677,,0,,0,Oregon,,Yaquina Bay,OSU,http://web.engr.oregonstate.edu/~hallerm/index.htm,Academic,OSU,,http://web.engr.oregonstate.edu/~hallerm/radar_main.htm,false,,xband_radar,all,online,0
APL_Chaba,SISO,Buoy,?há?ba· UW/NANOOS Moored Buoy near La Push,APL-UW ?há?ba·,aplchaba,US/Pacific,47.9672,-124.9502,,0,,0,Washington,,La Push,APL-UW,http://www.nanoos.org/,Academic,NANOOS-APL2,http://www.nanoos.org/,http://wavechasers.apl.washington.edu/projects/active-projects/nemo,true,,buoy_default,all,online,1458680400
APL_Nemo,SISO,Buoy,"UW/NANOOS NEMO Subsurface profiler with NOAA ESP, near La Push",APL-UW NEMO-ESP Profiler,aplnemo,US/Pacific,47.974,-124.955,,0,,0,Washington,,La Push,APL-UW,http://www.nanoos.org,Academic,NANOOS-APL3,http://www.nanoos.org,,true,,buoy_default,all,online,1464030000
APL_NPB1PtWells,SISO,Buoy,Profiling Buoy at Point Wells - Central Sound,ORCA Point Wells,npb1,US/Pacific,47.7612,-122.3972,,0,,0,Washington,,Puget Sound,ORCA-UW,http://orca.ocean.washington.edu,Academic,NANOOS-APL,,http://orca.ocean.washington.edu/data_pointWells.html,true,,buoy_default,all,online,1454396400
APL_NPB2Carr,SISO,Buoy,Profiling Buoy at Carr Inlet - South Sound,ORCA Carr Inlet,npb2,US/Pacific,47.28,-122.73,,0,,0,Washington,,Puget Sound,ORCA-UW,http://orca.ocean.washington.edu,Academic,NANOOS-APL,,http://orca.ocean.washington.edu/data_carrInlet.html,true,,buoy_default,all,online,1430422200
CDIP_46211,SISO,Buoy,Station 46211 - Grays Harbor (036),CDIP Grays Harbor,46211,US/Pacific,46.858,-124.244,,0,,0,Washington,,Grays Harbor,CDIP-Scripps,http://cdip.ucsd.edu/,Academic,NDBC,,http://cdip.ucsd.edu/themes/s?u2=s:036:st:1&d2=p9,true,,buoy_default,all,online,1458676800
CDIP_46212,SISO,Buoy,Station 46212 - Humboldt Bay South Spit (128),CDIP Humboldt Bay S,46212,US/Pacific,40.753,-124.313,,0,,0,California,,Eureka,CDIP-Scripps,http://cdip.ucsd.edu/,Academic,NDBC,,http://cdip.ucsd.edu/themes/s?u2=s:128:st:1&d2=p9,true,,buoy_default,all,offline-permanent,0
CDIP_46213,SISO,Buoy,Station 46213 - Cape Mendocino (094),CDIP Cape Mendocino,46213,US/Pacific,40.294,-124.74,,0,,0,California,,Cape Mendocino,CDIP-Scripps,http://cdip.ucsd.edu/,Academic,NDBC,,http://cdip.ucsd.edu/themes/s?u2=s:094:st:1&d2=p9,true,,buoy_default,all,online,1462228200
CDIP_46229,SISO,Buoy,Station 46229 - Umpqua offshore (139),CDIP Umpqua,46229,US/Pacific,43.769,-124.551,,0,,0,Oregon,,Umpqua,CDIP-Scripps,http://cdip.ucsd.edu/,Academic,NDBC,,http://cdip.ucsd.edu/themes/s?u2=s:139:st:1&d2=p9,true,,buoy_default,all,online,0
CDIP_46243,SISO,Buoy,Station 46243 - Clatsop Spit (162),CDIP Clatsop Spit,46243,US/Pacific,46.2155,-124.128,,0,,0,Oregon,,Columbia Estuary,CDIP-Scripps,http://cdip.ucsd.edu/,Academic,NDBC,,http://cdip.ucsd.edu/themes/s?u2=s:162:st:1&d2=p9,true,,buoy_default,all,online,1442271600
CDIP_46246,SISO,Buoy,Station 46246 - Ocean Station Papa (166),CDIP Station Papa,46246,US/Pacific,49.985,-145.089,,0,,0,Washington,,North Pacific Ocean,CDIP-Scripps,http://cdip.ucsd.edu/,Academic,NDBC,,http://cdip.ucsd.edu/themes/s?u2=s:166:st:1&d2=p9,true,,buoy_default,all,online,0
CDIP_46248,SISO,Buoy,Station 46248 - Astoria Canyon (179),CDIP Astoria Canyon,46248,US/Pacific,46.1334,-124.6443,,0,,0,Oregon,,Astoria Canyon,CDIP-Scripps,http://cdip.ucsd.edu/,Academic,NDBC,,http://cdip.ucsd.edu/themes/s?u2=s:179:st:1&d2=p9,true,,buoy_default,all,online,1421865000
CMOP_Am169,SISO,Fixed Shore Platform,Astoria Meglar Bridge South Channel (ODOT pier 169),,am169,US/Pacific,46.196,-123.852,,0,,0,Oregon,,Columbia Estuary,CMOP,http://www.stccmop.org,Academic,NANOOS-CMOP,,http://www.stccmop.org/datamart/observation_network/fixedstation?station=am169,true,,shore_station_default,all,offline-temporary,0
CMOP_Cbnc3,SISO,Fixed Shore Platform,Cathlamet Bay North Channel (USCG day mark green 3),,cbnc3,US/Pacific,46.21,-123.714,,0,,0,Oregon,,Columbia Estuary,CMOP,http://www.stccmop.org,Academic,NANOOS-CMOP,,http://www.stccmop.org/datamart/observation_network/fixedstation?station=cbnc3,true,,shore_station_default,all,offline-temporary,0
CMOP_Coaof,SISO,Fixed Shore Platform,Waste water outfall (City of Astoria),,coaof,US/Pacific,46.2047,-123.774,,0,,0,Oregon,,Columbia Estuary,CMOP,http://www.stccmop.org,Academic,NANOOS-CMOP,,http://www.stccmop.org/datamart/observation_network/fixedstation?station=coaof,true,,shore_station_default,all,offline-temporary,0
CMOP_Dsdma,SISO,Fixed Shore Platform,Desdemona Sands Light,,dsdma,US/Pacific,46.2257,-123.9551,,0,,0,Oregon,,Columbia Estuary,CMOP,http://www.stccmop.org,Academic,NANOOS-CMOP,,http://www.stccmop.org/datamart/observation_network/fixedstation?station=dsdma,true,,shore_station_default,all,offline-temporary,1443229200
CMOP_Grays,SISO,Fixed Shore Platform,Grays Point (USCG day mark green 13),,grays,US/Pacific,46.2731,-123.7669,,0,,0,Oregon,,Columbia Estuary,CMOP,http://www.stccmop.org,Academic,NANOOS-CMOP,,http://www.stccmop.org/datamart/observation_network/fixedstation?station=grays,true,,shore_station_default,all,,1430614800
CMOP_Hmndb,SISO,Fixed Shore Platform,Hammond Tide Gage,,hmndb,US/Pacific,46.203,-123.952,,0,,0,Oregon,,Columbia Estuary,CMOP,http://www.stccmop.org,Academic,NANOOS-CMOP,,http://www.stccmop.org/datamart/observation_network/fixedstation?station=hmndb,true,,shore_station_default,all,offline-temporary,0
CMOP_Jetta,SISO,Fixed Shore Platform,Jetty A,,jetta,US/Pacific,46.2671,-124.0317,,0,,0,Oregon,,Columbia Estuary,CMOP,http://www.stccmop.org,Academic,NANOOS-CMOP,,http://www.stccmop.org/datamart/observation_network/fixedstation?station=jetta,true,,shore_station_default,all,online,1411869600
CMOP_Mottb,SISO,Fixed Shore Platform,SATURN-04,CMOP Saturn04,saturn04,US/Pacific,46.2036,-123.7586,,0,,0,Oregon,,Columbia Estuary,CMOP,http://www.stccmop.org,Academic,NANOOS-CMOP,,http://www.stccmop.org/datamart/observation_network/fixedstation?station=saturn04,true,,shore_station_default,all,online,0
CMOP_Ogi02,SISO,Buoy,SATURN-02,CMOP Saturn02,saturn02,US/Pacific,46.1735,-124.1272,,0,,0,Oregon,,Columbia Estuary,CMOP,http://www.stccmop.org,Academic,NANOOS-CMOP,,http://www.stccmop.org/datamart/observation_network/fixedstation?station=saturn02,true,,buoy_default,all,offline-temporary,1445032800
CMOP_Sandi,SISO,Fixed Shore Platform,Lower Sand Island light (USCG day mark green 5),,sandi,US/Pacific,46.256,-123.982,,0,,0,Oregon,,Columbia Estuary,CMOP,http://www.stccmop.org,Academic,NANOOS-CMOP,,http://www.stccmop.org/datamart/observation_network/fixedstation?station=sandi,true,,shore_station_default,all,offline-temporary,0
CMOP_Saturn01,SISO,Fixed Shore Platform,SATURN-01,,saturn01,US/Pacific,46.235,-123.8719,,0,,0,Oregon,,Columbia Estuary,CMOP,http://www.stccmop.org,Academic,NANOOS-CMOP,,http://www.stccmop.org/datamart/observation_network/fixedstation?station=saturn01,true,,shore_station_default,all,offline-temporary,1424206800
CMOP_Saturn03,SISO,Fixed Shore Platform,SATURN-03,,saturn03,US/Pacific,46.1997,-123.94,,0,,0,Oregon,,Columbia Estuary,CMOP,http://www.stccmop.org,Academic,NANOOS-CMOP,,http://www.stccmop.org/datamart/observation_network/fixedstation?station=saturn03,true,,shore_station_default,all,online,0
CMOP_Saturn05,SISO,Fixed Shore Platform,SATURN River Station 05 (LOBO Station),,saturn05,US/Pacific,46.1845,-123.1874,,0,,0,Oregon,,Columbia Estuary,CMOP,http://www.stccmop.org,Academic,NANOOS-CMOP,,http://www.stccmop.org/datamart/observation_network/fixedstation?station=saturn05,true,,shore_station_default,all,offline-temporary,1424206800
CMOP_Saturn06,SISO,River Gauge,SATURN River Station 06 (USGS Station),,saturn06::lagged,US/Pacific,45.5186,-122.6667,,0,,0,Oregon,,Columbia Estuary,CMOP,http://www.stccmop.org,Academic,NANOOS-CMOP,,http://www.stccmop.org/datamart/observation_network/fixedstation?station=saturn06,true,,river_gauge_default,all,online,0
CMOP_Tansy,SISO,Fixed Shore Platform,Tansy Point (USCG front range board),,tansy,US/Pacific,46.1888,-123.9194,,0,,0,Oregon,,Columbia Estuary,CMOP,http://www.stccmop.org,Academic,NANOOS-CMOP,,http://www.stccmop.org/datamart/observation_network/fixedstation?station=tansy,true,,shore_station_default,all,offline-temporary,1410584400
CMOP_Tnslh,SISO,Fixed Shore Platform,Tenasillahe Island (USFW dock),,tnslh,US/Pacific,46.2376,-123.4683,,0,,0,Oregon,,Columbia Estuary,CMOP,http://www.stccmop.org,Academic,NANOOS-CMOP,,http://www.stccmop.org/datamart/observation_network/fixedstation?station=tnslh,true,,shore_station_default,all,offline-temporary,0
CMOP_Woody,SISO,Fixed Shore Platform,Woody Island (USCG Pillar Rock back range board),,woody,US/Pacific,46.252,-123.534,,0,,0,Oregon,,Columbia Estuary,CMOP,http://www.stccmop.org,Academic,NANOOS-CMOP,,http://www.stccmop.org/datamart/observation_network/fixedstation?station=woody,true,,shore_station_default,all,offline-temporary,0
EC_46036,SISO,Buoy,Station 46036 - South Nomad,,46036,US/Pacific,48.353,-133.95,,0,,0,British Columbia,,North Pacific Ocean,Env. Canada,http://weather.gc.ca/marine/region_e.html?mapID=02,Env. Canada,NDBC,,http://weather.gc.ca/marine/weatherConditions-currentConditions_e.html?mapID=01&siteID=&stationID=46036,true,,buoy_default,all,online,1431963000
EC_46131,SISO,Buoy,Station 46131 - Sentry Shoal,,46131,US/Pacific,49.917,-125,,0,,0,British Columbia,,Strait of Georgia,Env. Canada,http://weatheroffice.gc.ca/marine/index_e.html,Env. Canada,NDBC,,http://weatheroffice.gc.ca/marine/weatherConditions-currentConditions_e.html?mapID=03&siteID=07003&stationID=46131,true,,buoy_default,all,online,0
EC_46132,SISO,Buoy,Station 46132 - South Brooks,,46132,US/Pacific,49.734,-127.918,,0,,0,British Columbia,,Vancouver Island,Env. Canada,http://weatheroffice.gc.ca/marine/index_e.html,Env. Canada,NDBC,,http://weatheroffice.gc.ca/marine/weatherConditions-currentConditions_e.html?mapID=02&siteID=15300&stationID=46132,true,,buoy_default,all,online,1462228200
EC_46146,SISO,Buoy,Station 46146 - Halibut Bank,,46146,US/Pacific,49.334,-123.717,,0,,0,British Columbia,,Strait of Georgia,Env. Canada,http://weatheroffice.gc.ca/marine/index_e.html,Env. Canada,NDBC,,http://weatheroffice.gc.ca/marine/weatherConditions-currentConditions_e.html?mapID=03&siteID=07003&stationID=46146,true,,buoy_default,all,online,0
EC_46206,SISO,Buoy,Station 46206 - La Perouse Bank,,46206,US/Pacific,48.834,-126,,0,,0,British Columbia,,Vancouver Island,Env. Canada,http://weatheroffice.gc.ca/marine/index_e.html,Env. Canada,NDBC,http://www.ndbc.noaa.gov/station_page.php?station=46206,http://weatheroffice.gc.ca/marine/weatherConditions-currentConditions_e.html?mapID=03&siteID=07003&stationID=46206,true,,buoy_default,all,online,1402116000
FHL_Friharbor1,SISO,Fixed Shore Platform,UW Friday Harbor Laboratories Cantilever Pt,FHL-UW Friday Harbor,NANOOS_FHL,US/Pacific,48.5461,-123.0077,,0,,0,Washington,,Puget Sound,FHL-UW,http://depts.washington.edu/nucella/,Academic,FHL-UW,,http://depts.washington.edu/fhl/wx.html,true,,shore_station_default,all,online,1446181200
HMSC_Newport,SISO,Fixed Shore Platform,"Hatfield Marine Sci. Ctr. monitoring site, Newport",HMSC Newport,HMSC,US/Pacific,44.6244,-124.0431,,0,,0,Oregon,,Newport,HMSC,http://hmsc.oregonstate.edu,Non-Profit,OSU,,http://hmsc.oregonstate.edu,true,,shore_station_default,all,online,0
HSU_Erkdockb,SISO,Fixed Shore Platform,Humboldt Bay Dock B Water Quality Sensor (HSU CeNCOOS),HSU Humboldt Dock B,ERKC1,US/Pacific,40.8013,-124.1816,,0,,0,California,,Eureka,HSU,http://cencoos.humboldt.edu,Academic,NDBC,,http://www.cencoos.org/data/shore/humboldt,true,,shore_station_default,all,offline-temporary,0
HSU_Erktdp,SISO,Fixed Shore Platform,Trinidad Pier Water Quality Sensor (HSU CeNCOOS),HSU Trinidad,TDPC1,US/Pacific,41.0554,-124.1471,,0,,0,California,,Eureka,HSU,http://cencoos.humboldt.edu,Academic,NDBC,,http://www.cencoos.org/data/shore/trinidad,true,,shore_station_default,all,offline-temporary,0
ICM_Marrowstone,SISO,Buoy,LSG ICM - Marrowstone Buoy,,Marrowstone,US/Pacific,48.0998,-122.7298,,0,,0,Washington,,Puget Sound,ICM-Mobilisa,http://www.icmobil.com,Industry,ICM-Mobilisa,,http://www.icmobile.com/products/enterprisewireless,true,,buoy_default,all,offline-permanent,1461268800
ICM_PortAngeles,SISO,Buoy,LSG ICM - Port Angeles Buoy,,PortAngeles,US/Pacific,48.1232,-123.395,,0,,0,Washington,,Strait of Juan de Fuca,ICM-Mobilisa,http://www.icmobil.com,Industry,ICM-Mobilisa,,http://www.icmobile.com/products/enterprisewireless,true,,buoy_default,all,offline-permanent,1461268800
ICM_Poulsbo,SISO,Buoy,LSG ICM - Poulsbo Buoy,,Poulsbo,US/Pacific,47.7296,-122.646,,0,,0,Washington,,Puget Sound,ICM-Mobilisa,http://www.icmobil.com,Industry,ICM-Mobilisa,,http://www.icmobile.com/products/enterprisewireless,true,,buoy_default,all,offline-permanent,1461268800
ICM_Sequim,SISO,Buoy,LSG ICM - Sequim Buoy,,Sequim,US/Pacific,48.1154,-123.0327,,0,,0,Washington,,Strait of Juan de Fuca,ICM-Mobilisa,http://www.icmobil.com,Industry,ICM-Mobilisa,,http://www.icmobile.com/products/enterprisewireless,true,,buoy_default,all,offline-permanent,1461268800
ICM_Worden,SISO,Buoy,LSG ICM - Fort Worden Buoy,,FortWorden,US/Pacific,48.1313,-122.7486,,0,,0,Washington,,Puget Sound,ICM-Mobilisa,http://www.icmobil.com,Industry,ICM-Mobilisa,,http://www.icmobile.com/products/enterprisewireless,true,,buoy_default,all,offline-permanent,1461268800
KC_ALKIPT,SISO,Buoy,"Alki Point Buoy, West Seattle",KC Alki,AlkiBuoy,US/Pacific,47.5701,-122.422,,0,,0,Washington,,Puget Sound,King County,http://green2.kingcounty.gov/marine-buoy/,County,King County,,http://green2.kingcounty.gov/marine-buoy/AlkiBuoyData.aspx,true,,buoy_default,all,offline-temporary,0
KC_NSAJ02,SISO,Fixed Shore Platform,"Dockton Park Pier Mooring - Inner Quartermaster Harbor, Vashon Island",,Dockton,US/Pacific,47.3728,-122.4534,,0,,0,Washington,,Puget Sound,King County,http://green2.kingcounty.gov/marine-buoy/,County,King County,,http://green2.kingcounty.gov/marine-buoy/DocktonData.aspx,true,,shore_station_default,all,online,1445378400
KC_NSGE01,SISO,Buoy,"Quartermaster Harbor Entrance Buoy, Vashon Island",,QuartermasterBuoy,US/Pacific,47.338,-122.4792,,0,,0,Washington,,Puget Sound,King County,http://green2.kingcounty.gov/marine-buoy/,County,King County,,http://green2.kingcounty.gov/marine-buoy/QuartermasterBuoyData.aspx,true,,buoy_default,all,offline-permanent,0
KC_PTWILLIAMS,SISO,Buoy,"Point Williams buoy, South Seattle",,PointWilliams,US/Pacific,47.5372,-122.4061,,0,,0,Washington,,Puget Sound,King County,http://green2.kingcounty.gov/marine-buoy/,County,King County,,https://green.kingcounty.gov/marine-buoy/PointWilliams.aspx,true,,buoy_default,all,online,1445378400
KC_SEAQYSI,SISO,Fixed Shore Platform,Seattle Aquarium Mooring - Elliott Bay,Seattle Aquarium,SeattleAquarium,US/Pacific,47.608,-122.3438,,0,,0,Washington,,Puget Sound,King County,http://green2.kingcounty.gov/marine-buoy/,County,King County,,http://green2.kingcounty.gov/marine-buoy/SeattleAquariumData.aspx,true,,shore_station_default,all,online,1445378400
KC_YCQMH01,SISO,Fixed Shore Platform,"Yacht Club Mooring - Inner Quartermaster Harbor, Vashon Island",,QuartermasterYachtClub,US/Pacific,47.3942,-122.4635,,0,,0,Washington,,Puget Sound,King County,http://green2.kingcounty.gov/marine-buoy/,County,King County,,http://green2.kingcounty.gov/marine-buoy/QuartermasterYachtClubData.aspx,true,,shore_station_default,all,online,1445378400
LOBO_Yaqui,SISO,Buoy,LOBO-Yaquina Bay,,yaquilobo,US/Pacific,44.6294,-124.0415,,0,,0,Oregon,,Newport,Sea-Bird Coastal,http://sea-birdcoastal.com,Industry,OSU,,http://yaquina.loboviz.com/,true,,buoy_default,all,offline-temporary,0
NDBC_46002,SISO,Buoy,NDBC 46002 - Oregon - 275NM W of Coos Bay,NDBC Oregon,46002,US/Pacific,42.614,-130.49,,0,,0,Oregon,,North Pacific Ocean,NDBC,http://www.ndbc.noaa.gov/maps/Northwest.shtml,Federal,NDBC,,http://www.ndbc.noaa.gov/station_page.php?station=46002,true,,buoy_default,all,online,1443229200
NDBC_46005,SISO,Buoy,NDBC 46005 - Washington - 300NM W of Aberdeen,NDBC Washington,46005,US/Pacific,45.958,-131,,0,,0,Washington,,North Pacific Ocean,NDBC,http://www.ndbc.noaa.gov/maps/Northwest.shtml,Federal,NDBC,,http://www.ndbc.noaa.gov/station_page.php?station=46005,true,,buoy_default,all,online,1406860200
NDBC_46015,SISO,Buoy,NDBC 46015 - Port Orford - 15NM W of Port Orford,NDBC Port Orford,46015,US/Pacific,42.764,-124.832,,0,,0,Oregon,,Port Orford,NDBC,http://www.ndbc.noaa.gov/maps/Northwest.shtml,Federal,NDBC,,http://www.ndbc.noaa.gov/station_page.php?station=46015,true,,buoy_default,all,online,0
NDBC_46022,SISO,Buoy,NDBC 46022 - Eel River - 17NM WSW of Eureka,NDBC Eel River,46022,US/Pacific,40.72,-124.531,,0,,0,California,,Eureka,NDBC,http://www.ndbc.noaa.gov/maps/Northwest.shtml,Federal,NDBC,,http://www.ndbc.noaa.gov/station_page.php?station=46022,true,,buoy_default,all,online,1426190400
NDBC_46027,SISO,Buoy,NDBC 6027 - St Georges - 8NM WNW of Crescent City,NDBC St Georges,46027,US/Pacific,41.852,-124.382,,0,,0,California,,Crescent City,NDBC,http://www.ndbc.noaa.gov/maps/Northwest.shtml,Federal,NDBC,,http://www.ndbc.noaa.gov/station_page.php?station=46027,true,,buoy_default,all,online,1446136200
NDBC_46029,SISO,Buoy,NDBC 46029 - Columbia R Bar - 20NM W of Columbia R Mouth,NDBC Columbia R Bar,46029,US/Pacific,46.159,-124.514,,0,,0,Oregon,,Astoria Canyon,NDBC,http://www.ndbc.noaa.gov/maps/Northwest.shtml,Federal,NDBC,,http://www.ndbc.noaa.gov/station_page.php?station=46029,true,,buoy_default,all,online,1443033000
NDBC_46041,SISO,Buoy,NDBC 46041 - Cape Elizabeth - 45NM NW of Aberdeen,NDBC Cape Elizabeth,46041,US/Pacific,47.353,-124.731,,0,,0,Washington,,Cape Elizabeth,NDBC,http://www.ndbc.noaa.gov/maps/Northwest.shtml,Federal,NDBC,,http://www.ndbc.noaa.gov/station_page.php?station=46041,true,,buoy_default,all,online,1454968800
NDBC_46050,SISO,Buoy,NDBC 46050 - Stonewall Bank - 20NM W of Newport,NDBC Stonewall Bank,46050,US/Pacific,44.6561,-124.5258,,0,,0,Oregon,,Stonewall Banks,NDBC,http://www.ndbc.noaa.gov/maps/Northwest.shtml,Federal,NDBC,,http://www.ndbc.noaa.gov/station_page.php?station=46050,true,,buoy_default,all,online,1430420400
NDBC_46087,SISO,Buoy,NDBC 46087 - Neah Bay - 6NM N of Cape Flattery,NDBC Neah Bay,46087,US/Pacific,48.494,-124.727,,0,,0,Washington,,Strait of Juan de Fuca,NDBC,http://www.ndbc.noaa.gov/maps/Northwest.shtml,Federal,NDBC,,http://www.ndbc.noaa.gov/station_page.php?station=46087,true,,buoy_default,all,online,0
NDBC_46088,SISO,Buoy,NDBC 46088 - New Dungeness - 17NM NE of Port Angeles,NDBC New Dungeness,46088,US/Pacific,48.333,-123.167,,0,,0,Washington,,Puget Sound,NDBC,http://www.ndbc.noaa.gov/maps/Northwest.shtml,Federal,NDBC,,http://www.ndbc.noaa.gov/station_page.php?station=46088,true,,buoy_default,all,online,0
NDBC_46089,SISO,Buoy,NDBC 46089 - Tillamook - 85 NM WNW of Tillamook,NDBC Tillamook,46089,US/Pacific,45.908,-125.76,,0,,0,Oregon,,Tillamook,NDBC,http://www.ndbc.noaa.gov/maps/Northwest.shtml,Federal,NDBC,,http://www.ndbc.noaa.gov/station_page.php?station=46089,true,,buoy_default,all,online,0
NDBC_CARO3,SISO,Land Station,NDBC C-MAN CAR03 - Cape Arago,NDBC C-MAN Cape Arago,CARO3,US/Pacific,43.342,-124.375,,0,,0,Oregon,,Cape Arago,NDBC/C-MAN,http://www.ndbc.noaa.gov/cman.php,Federal,NDBC,,http://www.ndbc.noaa.gov/station_page.php?station=CARO3,true,,land_station_default,all,offline-permanent,0
NDBC_DESW1,SISO,Land Station,NDBC C-MAN DESW1 - Destruction Island,NDBC C-MAN Destruction Is,DESW1,US/Pacific,47.675,-124.485,,0,,0,Washington,,Olympic Peninsula,NDBC/C-MAN,http://www.ndbc.noaa.gov/cman.php,Federal,NDBC,,http://www.ndbc.noaa.gov/station_page.php?station=DESW1,true,,land_station_default,all,online,0
NDBC_NWPO3,SISO,Land Station,NDBC C-MAN NWPO3 - Newport,NDBC C-MAN Newport,NWPO3,US/Pacific,44.613,-124.067,,0,,0,Oregon,,Newport,NDBC/C-MAN,http://www.ndbc.noaa.gov/cman.php,Federal,NDBC,,http://www.ndbc.noaa.gov/station_page.php?station=NWPO3,true,,land_station_default,all,online,0
NDBC_SISW1,SISO,Land Station,NDBC C-MAN SISW1 - Smith Island,NDBC C-MAN Smith Is,SISW1,US/Pacific,48.318,-122.843,,0,,0,Washington,,Puget Sound,NDBC/C-MAN,http://www.ndbc.noaa.gov/cman.php,Federal,NDBC,,http://www.ndbc.noaa.gov/station_page.php?station=SISW1,true,,land_station_default,all,online,0
NDBC_TTIW1,SISO,Land Station,NDBC C-MAN TTIW1 - Tatoosh Island,NDBC C-MAN Tatoosh Is,TTIW1,US/Pacific,48.392,-124.735,,0,,0,Washington,,Olympic Peninsula,NDBC/C-MAN,http://www.ndbc.noaa.gov/cman.php,Federal,NDBC,,http://www.ndbc.noaa.gov/station_page.php?station=TTIW1,true,,land_station_default,all,online,0
NDBC_WPOW1,SISO,Land Station,NDBC C-MAN WPOW1 - West Point,NDBC C-MAN West Point,WPOW1,US/Pacific,47.662,-122.436,,0,,0,Washington,,Puget Sound,NDBC/C-MAN,http://www.ndbc.noaa.gov/cman.php,Federal,NDBC,,http://www.ndbc.noaa.gov/station_page.php?station=WPOW1,true,,land_station_default,all,online,0
NERRS_PDBBPWQ,SISO,Fixed Shore Platform,"Station PDBBPWQ - Ploeg Channel, Padilla Bay Reserve",,PBLW1,US/Pacific,48.556,-122.53,,0,,0,Washington,,Padilla Bay,NERRS,http://nerrs.noaa.gov/Reserve.aspx?ResID=PDB,Federal,NDBC,,http://nerrsdata.org/get/realTime.cfm?stationCode=pdbbpwq,true,,shore_station_default,all,online,0
NERRS_PDBBYWQ,SISO,Fixed Shore Platform,"Station PDBBYWQ - Bayview Channel, Padilla Bay Reserve",,BVQW1,US/Pacific,48.496,-122.501,,0,,0,Washington,,Padilla Bay,NERRS,http://nerrs.noaa.gov/Reserve.aspx?ResID=PDB,Federal,NDBC,,http://nerrsdata.org/get/realTime.cfm?stationCode=pdbbywq,true,,shore_station_default,all,online,0
NERRS_PDBFMET,SISO,Land Station,"Station PDBFMET - Padilla Bay Farm, Padilla Bay Reserve",,PBFW1,US/Pacific,48.464,-122.468,,0,,0,Washington,,Padilla Bay,NERRS,http://nerrs.noaa.gov/Reserve.aspx?ResID=PDB,Federal,NDBC,,http://nerrsdata.org/get/realTime.cfm?stationCode=pdbpfmet,true,,land_station_default,all,online,0
NERRS_PDBJLWQ,SISO,Fixed Shore Platform,"Station PDBJLWQ - Joe Leary Slough, Padilla Bay Reserve",,PBLW1xx,US/Pacific,48.518,-122.473,,0,,0,Washington,,Padilla Bay,NERRS,http://nerrs.noaa.gov/Reserve.aspx?ResID=PDB,Federal,NDBC,,http://nerrsdata.org/get/realTime.cfm?stationCode=pdbjlwq,true,,shore_station_default,all,offline-permanent,0
NERRS_SOSCMMET,SISO,Land Station,"Station SOSCMMET - Charleston, South Slough Reserve",,CHNO3,US/Pacific,43.345,-124.329,,0,,0,Oregon,,South Slough,NERRS,http://nerrs.noaa.gov/Reserve.aspx?ResID=SOS,Federal,NDBC,,http://nerrsdata.org/get/realTime.cfm?stationCode=soscmmet,true,,land_station_default,all,offline-permanent,1436484600
NERRS_SOSCWQ,SISO,Fixed Shore Platform,"Station SOSCWQ - Charleston Bridge, South Slough Reserve",,CWQO3,US/Pacific,43.338,-124.321,,0,,0,Oregon,,South Slough,NERRS,http://nerrs.noaa.gov/Reserve.aspx?ResID=SOS,Federal,NDBC,,http://nerrsdata.org/get/realTime.cfm?stationCode=soschwq,true,,shore_station_default,all,online,1426881600
NERRS_SOSECWQ,SISO,Fixed Shore Platform,"Station SOSECWQ - Elliot Creek, South Slough Reserve",,SLOO3,US/Pacific,43.2965,-124.3107,,0,,0,Oregon,,South Slough,NERRS,http://nerrs.noaa.gov/Reserve.aspx?ResID=SOS,Federal,NDBC,,http://nerrsdata.org/get/realTime.cfm?stationCode=SOSECWQ,true,,shore_station_default,all,offline-temporary,1424205000
NERRS_SOSVAWQ,SISO,Fixed Shore Platform,"Station SOSVAWQ - Valino Island, South Slough Reserve",,SOQO3,US/Pacific,43.317,-124.322,,0,,0,Oregon,,South Slough,NERRS,http://nerrs.noaa.gov/Reserve.aspx?ResID=SOS,Federal,NDBC,,http://nerrsdata.org/get/realTime.cfm?stationCode=sosvawq,true,,shore_station_default,all,online,1426881600
NERRS_SOSWIWQ,SISO,Fixed Shore Platform,"Station SOSWIWQ - Winchester Arm, South Slough Reserve",,CHQO3,US/Pacific,43.282,-124.32,,0,,0,Oregon,,South Slough,NERRS,http://nerrs.noaa.gov/Reserve.aspx?ResID=SOS,Federal,NDBC,,http://nerrsdata.org/get/realTime.cfm?stationCode=soswiwq,true,,shore_station_default,all,online,1434398400
NOS_9418767,SISO,Fixed Shore Platform,Station 9418767 (NDBC HBYC1) - North Spit,NOS North Spit,9418767,US/Pacific,40.767,-124.217,,0,,0,California,,Eureka,NOS/CO-OPS,http://tidesandcurrents.noaa.gov/,Federal,NOS/CO-OPS,,http://tidesandcurrents.noaa.gov/stationhome.html?id=9418767,true,,shore_station_default,all,online,0
NOS_9419750,SISO,Fixed Shore Platform,Station 9419750 - Crescent City,NOS Crescent City,9419750,US/Pacific,41.745,-124.183,,0,,0,California,,Crescent City,NOS/CO-OPS,http://tidesandcurrents.noaa.gov,Federal,NOS/CO-OPS,,http://tidesandcurrents.noaa.gov/stationhome.html?id=9419750,true,,shore_station_default,all,online,0
NOS_9431647,SISO,Fixed Shore Platform,Station 9431647 - Port Orford,NOS Port Orford,9431647,US/Pacific,42.739,-124.4983,,0,,0,Oregon,,Port Orford,NOS/CO-OPS,http://tidesandcurrents.noaa.gov,Federal,NOS/CO-OPS,,http://tidesandcurrents.noaa.gov/stationhome.html?id=9431647,true,,shore_station_default,all,online,0
NOS_9432780,SISO,Fixed Shore Platform,Station 9432780 - Charleston,NOS Charleston,9432780,US/Pacific,43.345,-124.322,,0,,0,Oregon,,South Slough,NOS/CO-OPS,http://tidesandcurrents.noaa.gov,Federal,NOS/CO-OPS,,http://tidesandcurrents.noaa.gov/stationhome.html?id=9432780,true,,shore_station_default,all,online,0
NOS_9435380,SISO,Fixed Shore Platform,Station 9435380 - South Beach,NOS South Beach,9435380,US/Pacific,44.625,-124.043,,0,,0,Oregon,,Newport,NOS/CO-OPS,http://tidesandcurrents.noaa.gov,Federal,NOS/CO-OPS,,http://tidesandcurrents.noaa.gov/stationhome.html?id=9435380,true,,shore_station_default,all,online,0
NOS_9437540,SISO,Fixed Shore Platform,Station 9437540 - Garibaldi,NOS Garibaldi,9437540,US/Pacific,45.5545,-123.9189,,0,,0,Oregon,,Garibaldi,NOS/CO-OPS,http://tidesandcurrents.noaa.gov,Federal,NOS/CO-OPS,,http://tidesandcurrents.noaa.gov/stationhome.html?id=9437540,true,,shore_station_default,all,online,0
NOS_9439011,SISO,Fixed Shore Platform,Station 9439011 - Hammond,NOS Hammond,9439011,US/Pacific,46.2017,-123.945,,0,,0,Oregon,,Columbia Estuary,NOS/CO-OPS,http://tidesandcurrents.noaa.gov,Federal,NOS/CO-OPS,http://tidesandcurrents.noaa.gov,http://tidesandcurrents.noaa.gov/stationhome.html?id=9439011,true,,shore_station_default,all,offline-temporary,1413930600
NOS_9439040,SISO,Fixed Shore Platform,Station 9439040 - Astoria,NOS Astoria,9439040,US/Pacific,46.2073,-123.7683,,0,,0,Oregon,,Columbia Estuary,NOS/CO-OPS,http://tidesandcurrents.noaa.gov,Federal,NOS/CO-OPS,,http://tidesandcurrents.noaa.gov/stationhome.html?id=9439040,true,,shore_station_default,all,online,0
NOS_9439099,SISO,Fixed Shore Platform,"Station 9439099, Wauna",NOS Wauna,9439099,US/Pacific,46.16,-123.405,,0,,0,Oregon,,Columbia Estuary,NOS/CO-OPS,http://tidesandcurrents.noaa.gov/,Federal,NOS/CO-OPS,,http://tidesandcurrents.noaa.gov/stationhome.html?id=9439099,true,,shore_station_default,all,online,0
NOS_9439201,SISO,Fixed Shore Platform,Station 9439201 - Saint Helens,NOS St. Helens,9439201,US/Pacific,45.865,-122.797,,0,,0,Oregon,,Columbia Estuary,NOS/CO-OPS,http://tidesandcurrents.noaa.gov,Federal,NOS/CO-OPS,,http://tidesandcurrents.noaa.gov/stationhome.html?id=9439201,true,,shore_station_default,all,online,0
NOS_9440083,SISO,Fixed Shore Platform,Station 9440083 - Vancouver,NOS Vancouver,9440083,US/Pacific,45.6317,-122.697,,0,,0,Washington,,Columbia Estuary,NOS/CO-OPS,http://tidesandcurrents.noaa.gov,Federal,NOS/CO-OPS,,http://tidesandcurrents.noaa.gov/stationhome.html?id=9440083,true,,shore_station_default,all,online,0
NOS_9440422,SISO,Fixed Shore Platform,Station 9440422 - Longview,NOS Longview,9440422,US/Pacific,46.1061,-122.9542,,0,,0,Washington,,Columbia Estuary,NOS/CO-OPS,http://tidesandcurrents.noaa.gov,Federal,NOS/CO-OPS,,http://tidesandcurrents.noaa.gov/stationhome.html?id=9440422,true,,shore_station_default,all,online,1447191000
NOS_9440569,SISO,Fixed Shore Platform,Station 9440569 - Skamokawa,NOS Skamokawa,9440569,US/Pacific,46.2667,-123.452,,0,,0,Washington,,Columbia Estuary,NOS/CO-OPS,http://tidesandcurrents.noaa.gov,Federal,NOS/CO-OPS,,http://tidesandcurrents.noaa.gov/stationhome.html?id=9440569,true,,shore_station_default,all,online,0
NOS_9440910,SISO,Fixed Shore Platform,Station 9440910 - Toke Point,NOS Toke Point,9440910,US/Pacific,46.7075,-123.9669,,0,,0,Washington,,Willapa Bay,NOS/CO-OPS,http://tidesandcurrents.noaa.gov,Federal,NOS/CO-OPS,,http://tidesandcurrents.noaa.gov/stationhome.html?id=9440910,true,,shore_station_default,all,online,0
NOS_9441102,SISO,Fixed Shore Platform,Station 9441102 - Westport,NOS Westport,9441102,US/Pacific,46.9043,-124.1051,,0,,0,Washington,,Westport,NOS/CO-OPS,http://tidesandcurrents.noaa.gov,Federal,NOS/CO-OPS,,http://tidesandcurrents.noaa.gov/stationhome.html?id=9441102,true,,shore_station_default,all,online,0
NOS_9442396,SISO,Fixed Shore Platform,Station 9442396 - La Push,NOS La Push,9442396,US/Pacific,47.9133,-124.637,,0,,0,Washington,,La Push,NOS/CO-OPS,http://tidesandcurrents.noaa.gov,Federal,NOS/CO-OPS,,http://tidesandcurrents.noaa.gov/stationhome.html?id=9442396,true,,shore_station_default,all,online,0
NOS_9443090,SISO,Fixed Shore Platform,Station 9443090 - Neah Bay,NOS Neah Bay,9443090,US/Pacific,48.3667,-124.6117,,0,,0,Washington,,Strait of Juan de Fuca,NOS/CO-OPS,http://tidesandcurrents.noaa.gov,Federal,NOS/CO-OPS,,http://tidesandcurrents.noaa.gov/stationhome.html?id=9443090,true,,shore_station_default,all,online,0
NOS_9444090,SISO,Fixed Shore Platform,Station 9444090 - Port Angeles,NOS Port Angeles,9444090,US/Pacific,48.125,-123.44,,0,,0,Washington,,Strait of Juan de Fuca,NOS/CO-OPS,http://tidesandcurrents.noaa.gov,Federal,NOS/CO-OPS,,http://tidesandcurrents.noaa.gov/stationhome.html?id=9444090,true,,shore_station_default,all,online,0
NOS_9444900,SISO,Fixed Shore Platform,Station 9444900 - Port Townsend,NOS Port Townsend,9444900,US/Pacific,48.1117,-122.758,,0,,0,Washington,,Puget Sound,NOS/CO-OPS,http://tidesandcurrents.noaa.gov,Federal,NOS/CO-OPS,,http://tidesandcurrents.noaa.gov/stationhome.html?id=9444900,true,,shore_station_default,all,online,0
NOS_9446482,SISO,Fixed Shore Platform,Station 9446482 - Tacoma MET,NOS Tacoma MET,9446482,US/Pacific,47.2758,-122.4178,,0,,0,Washington,,Puget Sound,NOS/CO-OPS,http://tidesandcurrents.noaa.gov,Federal,NOS/CO-OPS,,http://tidesandcurrents.noaa.gov/stationhome.html?id=9446482,true,,shore_station_default,all,online,0
NOS_9446484,SISO,Fixed Shore Platform,Station 9446484 - Tacoma,NOS Tacoma,9446484,US/Pacific,47.2667,-122.4133,,0,,0,Washington,,Puget Sound,NOS/CO-OPS,http://tidesandcurrents.noaa.gov,Federal,NOS/CO-OPS,,http://tidesandcurrents.noaa.gov/stationhome.html?id=9446484,true,,shore_station_default,all,online,0
NOS_9447130,SISO,Fixed Shore Platform,Station 9447130 - Seattle,NOS Seattle,9447130,US/Pacific,47.6026,-122.3393,,0,,0,Washington,,Puget Sound,NOS/CO-OPS,http://tidesandcurrents.noaa.gov,Federal,NOS/CO-OPS,,http://tidesandcurrents.noaa.gov/stationhome.html?id=9447130,true,,shore_station_default,all,online,0
NOS_9449419,SISO,Fixed Shore Platform,Station 9449419 - Cherry Point South Dock,NOS Cherry Point 2,9449419,US/Pacific,48.86,-122.757,,0,,0,Washington,,Strait of Georgia,NOS/CO-OPS,http://tidesandcurrents.noaa.gov,Federal,NOS/CO-OPS,,http://tidesandcurrents.noaa.gov/stationhome.html?id=9449419,true,,shore_station_default,all,online,0
NOS_9449424,SISO,Fixed Shore Platform,Station 9449424 - Cherry Point,NOS Cherry Point,9449424,US/Pacific,48.8633,-122.758,,0,,0,Washington,,Strait of Georgia,NOS/CO-OPS,http://tidesandcurrents.noaa.gov,Federal,NOS/CO-OPS,,http://tidesandcurrents.noaa.gov/stationhome.html?id=9449424,true,,shore_station_default,all,online,0
NOS_9449880,SISO,Fixed Shore Platform,Station 9449880 - Friday Harbor,NOS Friday Harbor,9449880,US/Pacific,48.5467,-123.01,,0,,0,Washington,,Puget Sound,NOS/CO-OPS,http://tidesandcurrents.noaa.gov,Federal,NOS/CO-OPS,,http://tidesandcurrents.noaa.gov/stationhome.html?id=9449880,true,,shore_station_default,all,online,0
NWFSC_ESPSamish,SISO,Fixed Shore Platform,"Samish Bay Biosensor, Taylor Shellfish Farms",,Samish Bay data::Samish Bay data,US/Pacific,48.6101,-122.4372,,0,,0,Washington,,Puget Sound,NWFSC-NOAA,http://www.nwfsc.noaa.gov/research/divisions/efs,Federal,NWFSC-NOAA,,http://www.nwfsc.noaa.gov/research/divisions/efs/microbes/harmful_algae/esp.cfm,true,,shore_station_default,all,offline-temporary,0
OCNMS_Transects,SISO,Mooring Array,NOAA Olympic Coast National Marine Sanctuary Moorings,OCNMS Moorings,uff,US/Pacific,47.8,-124.7,"-124.3,47.3::-124.7,47.3::-125.0,48.2::-124.7,48.4::-124.6,48.4::-124.7,48.2::-124.4,47.8::-124.3,47.3",0,,0,Washington,,Washington Coast,OCNMS,http://olympiccoast.noaa.gov/science/oceanography/oceanography.html,Federal,OCNMS,,http://olympiccoast.noaa.gov/science/oceanography/oceanographic_moorings/oceanographic_moorings_data.html,false,,moored_array_default,all,online,0
ORCA_Dabobbay,SISO,Buoy,Profiling Buoy at Dabob Bay - Hood Canal,ORCA Dabob Bay,dabob,US/Pacific,47.8034,-122.8029,,0,,0,Washington,,Puget Sound,ORCA-UW,http://orca.ocean.washington.edu,Academic,NANOOS-APL,,http://orca.ocean.washington.edu/data_dabob.html,true,,buoy_default,all,online,1452103200
ORCA_Duckabush,SISO,Buoy,Profiling Buoy at Duckabush - Hood Canal,,duckab,US/Pacific,47.5533,-123,,0,,0,Washington,,Puget Sound,ORCA-UW,http://orca.ocean.washington.edu,Academic,NANOOS-APL,,http://orca.ocean.washington.edu/data_duckabush.html,true,,buoy_default,staging,offline-permanent,0
ORCA_Hansville,SISO,Buoy,Profiling Buoy at Hansville - Hood Canal,,hansv,US/Pacific,47.9073,-122.627,,0,,0,Washington,,Puget Sound,ORCA-UW,http://orca.ocean.washington.edu,Academic,NANOOS-APL,,http://orca.ocean.washington.edu/data_northbuoy.html,true,,buoy_default,all,online,1454396400
ORCA_Hoodsport,SISO,Buoy,Profiling Buoy at Hoodsport - Hood Canal,,hoodsp,US/Pacific,47.4218,-123.1126,,0,,0,Washington,,Puget Sound,ORCA-UW,http://orca.ocean.washington.edu,Academic,NANOOS-APL,,http://orca.ocean.washington.edu/data_hoodsport.html,true,,buoy_default,all,online,1426188600
ORCA_Twanoh,SISO,Buoy,Profiling Buoy at Twanoh - Hood Canal,,twanoh,US/Pacific,47.375,-123.0083,,0,,0,Washington,,Puget Sound,ORCA-UW,http://orca.ocean.washington.edu,Academic,NANOOS-APL,,http://orca.ocean.washington.edu/data_twanoh.html,true,,buoy_default,all,online,1452535200
OSU_NH10,SISO,Buoy,"NH-10 Buoy, Newport",OSU NH-10,NH10,US/Pacific,44.642,-124.3003,,0,,0,Oregon,,Newport,OSU,http://ceoas.oregonstate.edu,Academic,OSU,,http://agate.coas.oregonstate.edu/data/nh10.html,true,,buoy_default,all,offline-temporary,1458684000
PAPA_48400,SISO,Buoy,Station 48400 - Ocean Climate Station Papa,Ocean Station Papa,48400,US/Pacific,50,-145,,0,,0,Washington,,North Pacific Ocean,PMEL,http://www.pmel.noaa.gov/stnP/index.html,Federal,NDBC,,http://www.pmel.noaa.gov/stnP/index.html,true,,buoy_default,all,online,0
PSI_Baycenter,SISO,Fixed Shore Platform,"PCSGA - Bay Center Port mooring, Willapa Bay",PSI-PCSGA Bay Center,Bay_Center::YSI5200::Bay_Center_DataLog_2,US/Pacific,46.629,-123.9516,,0,,0,Washington,,Willapa Bay,PSI,http://pacshell.org,Non-Profit,PSI,,http://pacshell.org,true,,shore_station_default,all,online,1446750000
PSI_Lummi,SISO,Fixed Shore Platform,"PCSGA - Lummi hatchery mooring, Lummi Bay",PSI-PCSGA Lummi,uff::da,US/Pacific,48.7799,-122.6463,,0,,0,Washington,,Puget Sound,PSI,http://pacshell.org,Non-Profit,PSI,,http://pacshell.org,true,,shore_station_default,all,offline-temporary,0
PSI_Nahcotta,SISO,Fixed Shore Platform,"PCSGA - Nahcotta Port hatchery mooring, Willapa Bay",PSI-PCSGA Nahcotta,NAH::YSI5200::NAH_DataLog_2,US/Pacific,46.5007,-124.0304,,0,,0,Washington,,Willapa Bay,PSI,http://pacshell.org,Non-Profit,PSI,,http://pacshell.org,true,,shore_station_default,all,offline-temporary,1458684000
PSI_Tokeland,SISO,Fixed Shore Platform,"PCSGA - Tokeland mooring, Willapa Bay",PSI-PCSGA Tokeland,uff::da,US/Pacific,46.715,-123.975,,0,,0,Washington,,Willapa Bay,PSI,http://pacshell.org,Non-Profit,PSI,,http://pacshell.org,true,,shore_station_default,all,offline-temporary,0
STTI_Portsusan,SISO,Buoy,"Port Susan buoy, Stillaguamish Tribe",STTI Port Susan,PortSusanData,US/Pacific,48.175,-122.42,,0,,0,Washington,,Puget Sound,StillaguamishTribe,http://stillaguamish.com/naturalresources.asp,Tribal,StillaguamishTribe,,http://stillaguamish.com/remotehydrolab.asp,true,,buoy_default,all,online,1462573800
TAF_Dabobbay,SISO,Fixed Shore Platform,"PCSGA - Taylor Shellfish Hatchery intakes, Dabob Bay",Taylor-PCSGA Dabob,Taylorshellfish::YSI5200::Shallow_DataLog_2::Deep_DataLog_2,US/Pacific,47.8199,-122.8215,,0,,0,Washington,,Puget Sound,TaylorShellfish,http://www.taylorshellfishfarms.com,Industry,TaylorShellfish,,http://www.taylorshellfishfarms.com,true,,shore_station_default,all,online,1453939200
USGS_11530500,SISO,River Gauge,USGS 11530500 Klamath River near Klamath,USGS Klamath,NWISUV_11530500,US/Pacific,41.511,-123.9795,,0,,0,California,,Klamath River,USGS,http://waterdata.usgs.gov,Federal,CUAHSI-HIS,http://his.cuahsi.org/hiscentral.html,http://waterdata.usgs.gov/nwis/uv/?site_no=11530500,true,,river_gauge_default,all,online,0
USGS_11532500,SISO,River Gauge,USGS 11532500 Smith River near Crescent City,USGS Smith,NWISUV_11532500,US/Pacific,41.7915,-124.0762,,0,,0,California,,Crescent City,USGS,http://waterdata.usgs.gov,Federal,CUAHSI-HIS,http://his.cuahsi.org/hiscentral.html,http://waterdata.usgs.gov/nwis/uv/?site_no=11532500,true,,river_gauge_default,all,online,0
USGS_12013500,SISO,River Gauge,USGS 12013500 Willapa River near Willapa,USGS Willapa,NWISUV_12013500,US/Pacific,46.6511,-123.6514,,0,,0,Washington,,Willapa Bay,USGS,http://waterdata.usgs.gov,Federal,CUAHSI-HIS,http://his.cuahsi.org/hiscentral.html,http://waterdata.usgs.gov/nwis/uv/?site_no=12013500,true,,river_gauge_default,all,online,0
USGS_12031000,SISO,River Gauge,USGS 12031000 Chehalis River at Porter,USGS Chehalis,NWISUV_12031000,US/Pacific,46.9393,-123.3143,,0,,0,Washington,,Olympic Peninsula,USGS,http://waterdata.usgs.gov,Federal,CUAHSI-HIS,http://his.cuahsi.org/hiscentral.html,http://waterdata.usgs.gov/nwis/uv/?site_no=12031000,true,,river_gauge_default,all,online,0
USGS_12039500,SISO,River Gauge,USGS 12039500 Quinault River at Quinault Lake,USGS Quinault,NWISUV_12039500,US/Pacific,47.4576,-123.8893,,0,,0,Washington,,Olympic Peninsula,USGS,http://waterdata.usgs.gov,Federal,CUAHSI-HIS,http://his.cuahsi.org/hiscentral.html,http://waterdata.usgs.gov/nwis/uv/?site_no=12039500,true,,river_gauge_default,all,online,0
USGS_12040500,SISO,River Gauge,USGS 12040500 Queets River near Clearwater,USGS Queets,NWISUV_12040500,US/Pacific,47.5381,-124.3144,,0,,0,Washington,,Olympic Peninsula,USGS,http://waterdata.usgs.gov,Federal,CUAHSI-HIS,http://his.cuahsi.org/hiscentral.html,http://waterdata.usgs.gov/nwis/uv/?site_no=12040500,true,,river_gauge_default,all,online,0
USGS_12041200,SISO,River Gauge,USGS 12041200 Hoh River at US Hwy 101 near Forks,USGS Hoh,NWISUV_12041200,US/Pacific,47.8067,-124.251,,0,,0,Washington,,Olympic Peninsula,USGS,http://waterdata.usgs.gov,Federal,CUAHSI-HIS,http://his.cuahsi.org/hiscentral.html,http://waterdata.usgs.gov/nwis/uv/?site_no=12041200,true,,river_gauge_default,all,online,0
USGS_12044900,SISO,River Gauge,USGS 12044900 Elwha River above Lake Mills near Port Angeles,USGS Elwha Source,NWISUV_12044900,US/Pacific,47.9701,-123.5907,,0,,0,Washington,,Elwha River,USGS,http://waterdata.usgs.gov,Federal,CUAHSI-HIS,http://his.cuahsi.org/hiscentral.html,http://waterdata.usgs.gov/nwis/uv/?site_no=12044900,true,,river_gauge_default,all,offline-temporary,1449522000
USGS_12045500,SISO,River Gauge,USGS 12045500 Elwha River at Mcdonald Br near Port Angeles,,NWISUV_12045500,US/Pacific,48.0548,-123.5832,,0,,0,Washington,,Elwha River,USGS,http://waterdata.usgs.gov,Federal,CUAHSI-HIS,http://his.cuahsi.org/hiscentral.html,http://waterdata.usgs.gov/nwis/uv/?site_no=12045500,true,,river_gauge_default,all,online,0
USGS_12046260,SISO,River Gauge,USGS 12046260 Elwha River at Diversion near Port Angeles,USGS Elwha,NWISUV_12046260,US/Pacific,48.112,-123.5521,,0,,0,Washington,,Elwha River,USGS,http://waterdata.usgs.gov,Federal,CUAHSI-HIS,http://his.cuahsi.org/hiscentral.html,http://waterdata.usgs.gov/nwis/uv/?site_no=12046260,true,,river_gauge_default,all,online,0
USGS_12061500,SISO,River Gauge,USGS 12061500 Skokomish River near Potlatch,USGS Skokomish,NWISUV_12061500,US/Pacific,47.3098,-123.1771,,0,,0,Washington,,Puget Sound,USGS,http://waterdata.usgs.gov,Federal,CUAHSI-HIS,http://his.cuahsi.org/hiscentral.html,http://waterdata.usgs.gov/nwis/uv/?site_no=12061500,true,,river_gauge_default,all,online,0
USGS_12089500,SISO,River Gauge,USGS 12089500 Nisqually River at Mckenna,USGS Nisqually,NWISUV_12089500,US/Pacific,46.9334,-122.561,,0,,0,Washington,,Puget Sound,USGS,http://waterdata.usgs.gov,Federal,CUAHSI-HIS,http://his.cuahsi.org/hiscentral.html,http://waterdata.usgs.gov/nwis/uv/?site_no=12089500,true,,river_gauge_default,all,online,0
USGS_12101500,SISO,River Gauge,USGS 12101500 Puyallup River at Puyallup,USGS Puyallup,NWISUV_12101500,US/Pacific,47.2084,-122.3271,,0,,0,Washington,,Puget Sound,USGS,http://waterdata.usgs.gov,Federal,CUAHSI-HIS,http://his.cuahsi.org/hiscentral.html,http://waterdata.usgs.gov/nwis/uv/?site_no=12101500,true,,river_gauge_default,all,online,0
USGS_12113000,SISO,River Gauge,USGS 12113000 Green River near Auburn,USGS Green,NWISUV_12113000,US/Pacific,47.3123,-122.204,,0,,0,Washington,,Puget Sound,USGS,http://waterdata.usgs.gov,Federal,CUAHSI-HIS,http://his.cuahsi.org/hiscentral.html,http://waterdata.usgs.gov/nwis/uv/?site_no=12113000,true,,river_gauge_default,all,online,0
USGS_12150800,SISO,River Gauge,USGS 12150800 Snohomish River near Monroe,USGS Snohomish,NWISUV_12150800,US/Pacific,47.8309,-122.0485,,0,,0,Washington,,Puget Sound,USGS,http://waterdata.usgs.gov,Federal,CUAHSI-HIS,http://his.cuahsi.org/hiscentral.html,http://waterdata.usgs.gov/nwis/uv/?site_no=12150800,true,,river_gauge_default,all,online,0
USGS_12167000,SISO,River Gauge,USGS 12167000 N.F. Stillaguamish River near Arlington,USGS NF Stillaguamish,NWISUV_12167000,US/Pacific,48.2615,-122.0476,,0,,0,Washington,,Puget Sound,USGS,http://waterdata.usgs.gov,Federal,CUAHSI-HIS,http://his.cuahsi.org/hiscentral.html,http://waterdata.usgs.gov/nwis/uv/?site_no=12167000,true,,river_gauge_default,all,online,0
USGS_12200500,SISO,River Gauge,USGS 12200500 Skagit River near Mount Vernon,USGS Skagit,NWISUV_12200500,US/Pacific,48.4448,-122.3354,,0,,0,Washington,,Puget Sound,USGS,http://waterdata.usgs.gov,Federal,CUAHSI-HIS,http://his.cuahsi.org/hiscentral.html,http://waterdata.usgs.gov/nwis/uv/?site_no=12200500,true,,river_gauge_default,all,online,0
USGS_12201500,SISO,River Gauge,USGS 12201500 Samish River near Burlington,USGS Samish,NWISUV_12201500,US/Pacific,48.5459,-122.3382,,0,,0,Washington,,Padilla Bay,USGS,http://waterdata.usgs.gov,Federal,CUAHSI-HIS,http://his.cuahsi.org/hiscentral.html,http://waterdata.usgs.gov/nwis/uv/?site_no=12201500,true,,river_gauge_default,all,online,0
USGS_12213100,SISO,River Gauge,USGS 12213100 Nooksack River at Ferndale,USGS Nooksack,NWISUV_12213100,US/Pacific,48.8448,-122.5893,,0,,0,Washington,,Puget Sound,USGS,http://waterdata.usgs.gov,Federal,CUAHSI-HIS,http://his.cuahsi.org/hiscentral.html,http://waterdata.usgs.gov/nwis/uv/?site_no=12213100,true,,river_gauge_default,all,online,0
USGS_14128870,SISO,River Gauge,USGS 14128870 Columbia River below Bonneville Dam,USGS Columbia BD,NWISUV_14128870,US/Pacific,45.6387,-121.9556,,0,,0,Oregon,,Columbia Estuary,USGS,http://waterdata.usgs.gov,Federal,CUAHSI-HIS,http://his.cuahsi.org/hiscentral.html,http://waterdata.usgs.gov/nwis/uv/?site_no=14128870,true,,river_gauge_default,all,online,0
USGS_14197900,SISO,River Gauge,USGS 14197900 Willamette River at Newberg,USGS Willamette,NWISUV_14197900,US/Pacific,45.2846,-122.9615,,0,,0,Oregon,,Columbia Estuary,USGS,http://waterdata.usgs.gov,Federal,CUAHSI-HIS,http://his.cuahsi.org/hiscentral.html,http://waterdata.usgs.gov/nwis/uv/?site_no=14197900,true,,river_gauge_default,all,online,0
USGS_14246900,SISO,River Gauge,USGS 14246900 Columbia River at Beaver Army Terminal,USGS Columbia BAT,NWISUV_14246900,US/Pacific,46.1812,-123.1835,,0,,0,Oregon,,Columbia Estuary,USGS,http://waterdata.usgs.gov,Federal,CUAHSI-HIS,http://his.cuahsi.org/hiscentral.html,http://waterdata.usgs.gov/nwis/uv/?site_no=14246900,true,,river_gauge_default,all,online,0
USGS_14301000,SISO,River Gauge,USGS 14301000 Nehalem River near Foss,USGS Nehalem,NWISUV_14301000,US/Pacific,45.704,-123.7554,,0,,0,Oregon,,Tillamook,USGS,http://waterdata.usgs.gov,Federal,CUAHSI-HIS,http://his.cuahsi.org/hiscentral.html,http://waterdata.usgs.gov/nwis/uv/?site_no=14301000,true,,river_gauge_default,all,online,0
USGS_14301500,SISO,River Gauge,USGS 14301500 Wilson River near Tillamook,USGS Wilson,NWISUV_14301500,US/Pacific,45.4759,-123.7251,,0,,0,Oregon,,Tillamook,USGS,http://waterdata.usgs.gov,Federal,CUAHSI-HIS,http://his.cuahsi.org/hiscentral.html,http://waterdata.usgs.gov/nwis/uv/?site_no=14301500,true,,river_gauge_default,all,online,0
USGS_14302480,SISO,River Gauge,USGS 14302480 Trask River near Tillamook,USGS Trask,NWISUV_14302480,US/Pacific,45.4462,-123.7104,,0,,0,Oregon,,Tillamook,USGS,http://waterdata.usgs.gov,Federal,CUAHSI-HIS,http://his.cuahsi.org/hiscentral.html,http://waterdata.usgs.gov/nwis/uv/?site_no=14302480,true,,river_gauge_default,all,online,0
USGS_14303600,SISO,River Gauge,USGS 14303600 Nestucca River near Beaver,USGS Nestucca,NWISUV_14303600,US/Pacific,45.2665,-123.8471,,0,,0,Oregon,,Tillamook,USGS,http://waterdata.usgs.gov,Federal,CUAHSI-HIS,http://his.cuahsi.org/hiscentral.html,http://waterdata.usgs.gov/nwis/uv/?site_no=14303600,true,,river_gauge_default,all,online,0
USGS_14305500,SISO,River Gauge,USGS 14305500 Siletz River at Siletz,USGS Siletz,NWISUV_14305500,US/Pacific,44.7151,-123.8873,,0,,0,Oregon,,Newport,USGS,http://waterdata.usgs.gov,Federal,CUAHSI-HIS,http://his.cuahsi.org/hiscentral.html,http://waterdata.usgs.gov/nwis/uv/?site_no=14305500,true,,river_gauge_default,all,online,0
USGS_14306500,SISO,River Gauge,USGS 14306500 Alsea River near Tidewater,USGS Alsea,NWISUV_14306500,US/Pacific,44.386,-123.8318,,0,,0,Oregon,,Newport,USGS,http://waterdata.usgs.gov,Federal,CUAHSI-HIS,http://his.cuahsi.org/hiscentral.html,http://waterdata.usgs.gov/nwis/uv/?site_no=14306500,true,,river_gauge_default,all,online,0
USGS_14307620,SISO,River Gauge,USGS 14307620 Siuslaw River near Mapleton,USGS Siuslaw,NWISUV_14307620,US/Pacific,44.0623,-123.8832,,0,,0,Oregon,,Siuslaw River,USGS,http://waterdata.usgs.gov,Federal,CUAHSI-HIS,http://his.cuahsi.org/hiscentral.html,http://waterdata.usgs.gov/nwis/uv/?site_no=14307620,true,,river_gauge_default,all,online,0
USGS_14321000,SISO,River Gauge,USGS 14321000 Umpqua River near Elkton,USGS Umpqua,NWISUV_14321000,US/Pacific,43.5859,-123.5554,,0,,0,Oregon,,Umpqua River,USGS,http://waterdata.usgs.gov,Federal,CUAHSI-HIS,http://his.cuahsi.org/hiscentral.html,http://waterdata.usgs.gov/nwis/uv/?site_no=14321000,true,,river_gauge_default,all,online,0
USGS_14325000,SISO,River Gauge,USGS 14325000 S.F. Coquille River at Powers,USGS SF Coquille,NWISUV_14325000,US/Pacific,42.8915,-124.0706,,0,,0,Oregon,,Coquille River,USGS,http://waterdata.usgs.gov,Federal,CUAHSI-HIS,http://his.cuahsi.org/hiscentral.html,http://waterdata.usgs.gov/nwis/uv/?site_no=14325000,true,,river_gauge_default,all,online,0
USGS_14372300,SISO,River Gauge,USGS 14372300 Rogue River near Agness,USGS Rogue,NWISUV_14372300,US/Pacific,42.5784,-124.0581,,0,,0,Oregon,,Rogue River,USGS,http://waterdata.usgs.gov,Federal,CUAHSI-HIS,http://his.cuahsi.org/hiscentral.html,http://waterdata.usgs.gov/nwis/uv/?site_no=14372300,true,,river_gauge_default,all,online,0
USGS_14400000,SISO,River Gauge,USGS 14400000 Chetco River near Brookings,USGS Chetco,NWISUV_14400000,US/Pacific,42.1234,-124.1873,,0,,0,Oregon,,Chetco River,USGS,http://waterdata.usgs.gov,Federal,CUAHSI-HIS,http://his.cuahsi.org/hiscentral.html,http://waterdata.usgs.gov/nwis/uv/?site_no=14400000,true,,river_gauge_default,all,online,0
VENUS_GeorgiaC,SISO,Seabed Cabled Platform,Strait of Georgia - Central (seabed),VENUS SoG Central,georgiac,US/Pacific,49.0401,-123.4258,,0,,0,British Columbia,,Strait of Georgia,VENUS,http://www.venus.uvic.ca,Academic,VENUS,,http://www.oceannetworks.ca/installations/observatories/salish-sea/central-strait-georgia,true,,seabed_sensor_venus_1,all,online,1424458800
VENUS_GeorgiaE,SISO,Seabed Cabled Platform,Strait of Georgia - East VIP (seabed),VENUS SoG EastVIP,georgiae,US/Pacific,49.0432,-123.3168,,0,,0,British Columbia,,Strait of Georgia,VENUS,http://www.venus.uvic.ca,Academic,VENUS,,http://www.oceannetworks.ca/installations/observatories/salish-sea/eastern-strait-georgia,true,,seabed_sensor_venus_1,all,online,1424458800
VENUS_GeorgiaEDDL,SISO,Seabed Cabled Platform,Strait of Georgia - East Node DDL (seabed),,georgiaeddl,US/Pacific,49.0842,-123.3292,,0,,0,British Columbia,,Strait of Georgia,VENUS,http://www.venus.uvic.ca,Academic,VENUS,,http://www.venus.uvic.ca/discover-venus/where-is-venus/strait-of-georgia,true,,seabed_sensor_venus_1,all,offline-temporary,1424462400
VENUS_Saanich,SISO,Seabed Cabled Platform,Saanich Inlet - VIP (seabed),VENUS Saanich VIP,saanich,US/Pacific,48.6512,-123.4866,,0,,0,British Columbia,,Saanich Inlet,VENUS,http://www.venus.uvic.ca,Academic,VENUS,,http://www.oceannetworks.ca/installations/observatories/salish-sea/saanich-inlet,true,,seabed_sensor_venus_1,all,online,1424444400
VENUS_SaanichCCF,SISO,Seabed Cabled Platform,Saanich Inlet - Camera Site 2 (seabed),VENUS Saanich Camera2,saanichccf,US/Pacific,48.6511,-123.4861,,0,,0,British Columbia,,Saanich Inlet,VENUS,http://www.venus.uvic.ca,Academic,VENUS,,http://www.oceannetworks.ca/installations/observatories/salish-sea/saanich-inlet,true,,seabed_sensor_venus_1,all,online,1424455200
VENUS_SaanichHDW,SISO,Seabed Cabled Platform,Saanich Inlet - 3D Camera Site (seabed),VENUS Saanich 3DCamera,saanichhdw,US/Pacific,48.6507,-123.4864,,0,,0,British Columbia,,Saanich Inlet,VENUS,http://www.venus.uvic.ca,Academic,VENUS,,http://www.oceannetworks.ca/installations/observatories/salish-sea/saanich-inlet,true,,seabed_sensor_venus_1,all,online,1424455200
VIUCSR_Deepbay,SISO,Fixed Shore Platform,"VIU Deep Bay Marine Field Station, Baynes Sound",VIU Deep Bay MFS,DeepBay::YSI5200::DeepBay_DataLog_2,US/Pacific,49.46,-124.7368,,0,,0,British Columbia,,Strait of Georgia,VIU-CSR,http://www.viu.ca/deepbay/,Academic,VIU-CSR,,http://www.viu.ca/deepbay/resources/environmental-data.asp,true,,shore_station_default,all,offline-temporary,1415124000
WADOE_Mch01,SISO,Fixed Shore Platform,MCH01 Manchester/Clam Bay,WADOE Manchester,MCH01,US/Pacific,47.574,-122.545,,0,,0,Washington,,Puget Sound,WADOE,http://www.ecy.wa.gov/programs/eap/mar_wat/moorings.html,State,WADOE,http://www.ecy.wa.gov/programs/eap/mar_wat/moorings.html,http://www.ecy.wa.gov/apps/eap/marinewq/moorings/MCH01.asp,true,,shore_station_default,all,offline-temporary,0
WADOE_Muk01,SISO,Fixed Shore Platform,MUK01 Mukilteo,WADOE Mukilteo,MUK01,US/Pacific,47.95,-122.288,,0,,0,Washington,,Puget Sound,WADOE,http://www.ecy.wa.gov/programs/eap/mar_wat/moorings.html,State,WADOE,http://www.ecy.wa.gov/programs/eap/mar_wat/moorings.html,http://www.ecy.wa.gov/apps/eap/marinewq/moorings/MUK01.asp,true,,shore_station_default,all,offline-permanent,1447192800
WADOE_SQX01,SISO,Fixed Shore Platform,SQX01 Squaxin Passage/Carlyon Beach,WADOE Squaxin,SQX01,US/Pacific,47.182,-122.937,,0,,0,Washington,,Puget Sound,WADOE,http://www.ecy.wa.gov/programs/eap/mar_wat/moorings.html,State,WADOE,http://www.ecy.wa.gov/programs/eap/mar_wat/moorings.html,http://www.ecy.wa.gov/apps/eap/marinewq/moorings/SQX01.asp,true,,shore_station_default,all,offline-permanent,0
WADOE_WPA13,SISO,Fixed Shore Platform,"WPA13 Bay Center Channel Light, Willapa Bay mouth",WADOE Willapa,WPA13,US/Pacific,46.644,-123.993,,0,,0,Washington,,Willapa Bay,WADOE,http://www.ecy.wa.gov/programs/eap/mar_wat/moorings.html,State,WADOE,http://www.ecy.wa.gov/programs/eap/mar_wat/moorings.html,http://www.ecy.wa.gov/apps/eap/marinewq/moorings/WPA13.asp,true,,shore_station_default,all,offline-temporary,0
WCSH_Whiskey1,SISO,Fixed Shore Platform,"PCSGA - Whiskey Creek Shellfish Hatchery, Netarts Bay",WCSH-PCSGA Whiskey Crk,pcsgaburkolatordat/WCSH,US/Pacific,45.4214,-123.9362,,0,,0,Oregon,,Netarts Bay,WhiskeyCrShelfish,http://pcsga.org/search-our-growers/3/,Industry,OSU-CO2,,http://seagrant.oregonstate.edu/confluence/2-1/whiskey-creek-1,true,,shore_station_default,all,online,1449176400
PCS_Penncove1,SISO,Moored Shellfish Raft,"Penn Cove Shellfish, Coupeville - Whidbey Island",Penn Cove Shellfish,UW_Radio_UWTable1::PCS_Water_Meter_Table1::UW_Radio_UWTable3,US/Pacific,48.2191,-122.7048,,0,,0,Washington,,Puget Sound,PennCoveShellfish,http://penncoveshellfish.com/,Industry,PennCoveShellfish,,http://penncoveshellfish.com/sustainability.html,true,,shellfish_raft,all,online,1443213000
NERRS_SOSNSWQ,SISO,Fixed Shore Platform,SOSNSWQ Station - North Spit-BLM Boat Ramp near North Bend,SSNERR-CTCLUSI SOSNSWQ,346F229A,US/Pacific,43.4139,-124.2789,,0,,0,Oregon,,Coos Bay,SSNERR,http://nerrs.noaa.gov/Reserve.aspx?ResID=SOS,Federal,NWSHADS,http://www.nws.noaa.gov/oh/hads/,http://amazon.nws.noaa.gov/cgi-bin/hads/interactiveDisplays/displayMetaData.pl?table=dcp&nesdis_id=346F229A,true,,shore_station_default,all,online,1446055200
CMOP_Saturn07,SISO,Buoy,SATURN-07,,saturn07,US/Pacific,46.2867,-124.0162,,0,,0,Oregon,,Columbia Estuary,CMOP,http://www.stccmop.org,Academic,NANOOS-CMOP,,http://www.stccmop.org/datamart/observation_network/fixedstation?id=saturn07,true,,buoy_default,all,online,1424206800
CMOP_Saturn08,SISO,Buoy,SATURN-08 (LOBO Station),,saturn08::lagged,US/Pacific,45.577,-122.379,,0,,0,Oregon,,Columbia Estuary,CMOP,http://www.stccmop.org,Academic,NANOOS-CMOP,,http://www.stccmop.org/datamart/observation_network/fixedstation?id=saturn08,true,,buoy_default,all,online,1412043000
CMOP_Saturn09,SISO,Fixed Shore Platform,SATURN-09,,saturn09,US/Pacific,46.1765,-123.8693,,0,,0,Oregon,,Columbia Estuary,CMOP,http://www.stccmop.org,Academic,NANOOS-CMOP,,http://www.stccmop.org/datamart/observation_network/fixedstation?id=saturn09,true,,shore_station_default,all,online,1412042400
OSU_MODIS,RSP,Satellite,OSU MODIS Climatology,OSU MODIS Climate,,US/Pacific,42,-129,,0,,0,"Washington, Oregon, California, British Columbia",,West Coast,OSU,http://ceoas.oregonstate.edu,Academic,NOAA CoastWatch,http://coastwatch.pfeg.noaa.gov/erddap/search/index.html?&searchFor=OSU+MODIS+Climatology,http://nvs.nanoos.org/Climatology?section=Overview,false,,satellite_default,all,online,1449551400
OSU_AVISO,RSP,Satellite,OSU AVISO Climatology,OSU AVISO Climate,,US/Pacific,40,-131,,0,,0,"Washington, Oregon, California, British Columbia",,West Coast,OSU,http://ceoas.oregonstate.edu,Academic,AVISO,http://www.aviso.altimetry.fr/en/data/data-access.html,http://nvs.nanoos.org/Climatology?section=Overview,false,,satellite_default,all,online,1449551400
PCS_Quilcene,SISO,Moored Shellfish Raft,"Penn Cove Shellfish, Quilcene - Hood Canal",Penn Cove Shlfsh - Quilcene,Quil_Radio_QuilTable1::Quil_Radio_QuilTable3,US/Pacific,47.7874,-122.8527,,0,,0,Washington,,Puget Sound,PennCoveShellfish,http://penncoveshellfish.com/,Industry,PennCoveShellfish,,http://penncoveshellfish.com/sustainability.html,true,,shellfish_raft,all,offline-temporary,1452106800
OOI_CE09OSSM,SISO,Buoy,WA Offshore Surface Mooring,,CE09OSSM,US/Pacific,46.85,-124.97,,0,,0,Washington,,"Grays Harbor, OOI Washington Line",OOI,http://oceanobservatories.org,Academic,OOI,http://oceanobservatories.org/data-portal/,http://oceanobservatories.org/site/ce09ossm/,false,,buoy_default,all,offline-temporary,1455739200
OOI_CE09OSPM,SISO,Buoy,WA Offshore Profiler Mooring,,CE09OSPM,US/Pacific,46.8517,-124.9715,,0,,0,Washington,,"Grays Harbor, OOI Washington Line",OOI,http://oceanobservatories.org,Academic,OOI,http://oceanobservatories.org/data-portal/,http://oceanobservatories.org/site/ce09ospm/,false,,buoy_default,all,offline-temporary,1455739200
OOI_CE06ISSM,SISO,Buoy,WA Inshore Surface Mooring,,CE06ISSM,US/Pacific,47.13,-124.27,,0,,0,Washington,,"Grays Harbor, OOI Washington Line",OOI,http://oceanobservatories.org,Academic,OOI,http://oceanobservatories.org/data-portal/,http://oceanobservatories.org/site/ce06issm/,false,,buoy_default,all,offline-temporary,1455739200
OOI_CE07SHSM,SISO,Buoy,WA Shelf Surface Mooring,,CE07SHSM,US/Pacific,46.99,-124.57,,0,,0,Washington,,"Grays Harbor, OOI Washington Line",OOI,http://oceanobservatories.org,Academic,OOI,http://oceanobservatories.org/data-portal/,http://oceanobservatories.org/site/ce07shsm/,true,,buoy_default,all,offline-temporary,1455739200
OSU_NOAA_OI,RSP,Satellite,NCDC Optimum Interpolation SST,NCDC OI SST,,US/Pacific,46.1,-129.5,,0,,0,"Washington, Oregon, California, British Columbia",,Worldwide,NOAA-NCDC,http://www.ncdc.noaa.gov,Federal,NOAA-NCDC,ftp://eclipse.ncdc.noaa.gov/pub/OI-daily-v2/NetCDF/,http://www.ncdc.noaa.gov/sst/,,,satellite_default,all,online,1449551400
OSU_WOA,RSP,In-Situ,NODC World Ocean Atlas,NODC Ocean Atlas,,US/Pacific,47.25,-130,,0,,0,"Washington, Oregon, California, British Columbia",,Worldwide,NOAA-NODC,http://www.nodc.noaa.gov,Federal,NOAA-NODC,http://www.nodc.noaa.gov/cgi-bin/OC5/woa13/woa13.pl?parameter=s,http://www.nodc.noaa.gov/OC5/woa13/,,,model_recast,all,online,1422948600
WADOH_Totten,SISO,Fixed Shore Platform,"Totten Inlet site, N end near Gallagher Cove",WADOH Totten Inlet N,5G0F4690::oovna-dynoi,US/Pacific,47.1476,-122.9752,,0,,0,Washington,,Puget Sound,WADOH,http://www.doh.wa.gov,State,Decagon,http://www.decagon.com,http://www.doh.wa.gov/CommunityandEnvironment/Shellfish/CommercialShellfish/ForIndustryMembers/VibrioRuleRequirements/TemperatureData,true,,shore_station_default,all,offline-temporary,1446156000
WADOH_Skookum1,SISO,Fixed Shore Platform,"Skookum Inlet site, N shore near Deer Harbor",WADOH Skookum Inlet,5G0E3676::ejem-igjur,US/Pacific,47.1548,-123.0204,,0,,0,Washington,,Puget Sound,WADOH,http://www.doh.wa.gov,State,Decagon,http://www.decagon.com,http://www.doh.wa.gov/CommunityandEnvironment/Shellfish/CommercialShellfish/ForIndustryMembers/VibrioRuleRequirements/TemperatureData,true,,shore_station_default,staging,online,0
WADOH_Samish,SISO,Fixed Shore Platform,"Samish Bay site, mid bay",WADOH Samish Bay,5G0F4695::gibye-cyto,US/Pacific,48.5965,-122.4864,,0,,0,Washington,,Puget Sound,WADOH,http://www.doh.wa.gov,State,Decagon,http://www.decagon.com,http://www.doh.wa.gov/CommunityandEnvironment/Shellfish/CommercialShellfish/ForIndustryMembers/VibrioRuleRequirements/TemperatureData,true,,shore_station_default,all,offline-temporary,1446156000
WADOH_Portgamble1,SISO,Fixed Shore Platform,"Port Gamble site, E shore",WADOH Port Gamble,5G0F4712::shmey-drawm,US/Pacific,47.8454,-122.574,,0,,0,Washington,,Puget Sound,WADOH,http://www.doh.wa.gov,State,Decagon,http://www.decagon.com,http://www.doh.wa.gov/CommunityandEnvironment/Shellfish/CommercialShellfish/ForIndustryMembers/VibrioRuleRequirements/TemperatureData,true,,shore_station_default,all,offline-temporary,1446156000
WADOH_Pickering,SISO,Fixed Shore Platform,"Pickering Passage site, E shore near Graham Point",WADOH Pickering Passage,5G0F4706::typni-wetdi,US/Pacific,47.2558,-122.9281,,0,,0,Washington,,Puget Sound,WADOH,http://www.doh.wa.gov,State,Decagon,http://www.decagon.com,http://www.doh.wa.gov/CommunityandEnvironment/Shellfish/CommercialShellfish/ForIndustryMembers/VibrioRuleRequirements/TemperatureData,true,,shore_station_default,all,offline-temporary,1446156000
WADOH_Oakland,SISO,Fixed Shore Platform,"Oakland Bay site, W shore near Shelton",WADOH Oakland Bay,XX::YY,US/Pacific,47.2187,-123.0792,,0,,0,Washington,,Puget Sound,WADOH,http://www.doh.wa.gov,State,Decagon,http://www.decagon.com,http://www.doh.wa.gov/CommunityandEnvironment/Shellfish/CommercialShellfish/ForIndustryMembers/VibrioRuleRequirements/TemperatureData,true,,shore_station_default,staging,online,0
WADOH_Hoodcanal9,SISO,Fixed Shore Platform,"Hood Canal 9 site, N shore of Hood Canal near Belfair",WADOH Hood Canal 9,5G0E3905::caleu-yaif,US/Pacific,47.4208,-122.9021,,0,,0,Washington,,Puget Sound,WADOH,http://www.doh.wa.gov,State,Decagon,http://www.decagon.com,http://www.doh.wa.gov/CommunityandEnvironment/Shellfish/CommercialShellfish/ForIndustryMembers/VibrioRuleRequirements/TemperatureData,true,,shore_station_default,all,offline-temporary,1446156000
WADOH_Hoodcanal8,SISO,Fixed Shore Platform,"Hood Canal 8 site, S shore of Hood Canal near Twanoh ",WADOH Hood Canal 8,5G0F4687::ghoir-nizut,US/Pacific,47.3789,-122.9701,,0,,0,Washington,,Puget Sound,WADOH,http://www.doh.wa.gov,State,Decagon,http://www.decagon.com,http://www.doh.wa.gov/CommunityandEnvironment/Shellfish/CommercialShellfish/ForIndustryMembers/VibrioRuleRequirements/TemperatureData,true,,shore_station_default,all,offline-temporary,1446156000
WADOH_Hoodcanal7,SISO,Fixed Shore Platform,"Hood Canal 7 site, N shore of Hood Canal near Tahuya",WADOH Hood Canal 7,5G0E3904::rydec-luvi,US/Pacific,47.3612,-123.0247,,0,,0,Washington,,Puget Sound,WADOH,http://www.doh.wa.gov,State,Decagon,http://www.decagon.com,http://www.doh.wa.gov/CommunityandEnvironment/Shellfish/CommercialShellfish/ForIndustryMembers/VibrioRuleRequirements/TemperatureData,true,,shore_station_default,all,offline-temporary,1446156000
WADOH_Hoodcanal5,SISO,Fixed Shore Platform,"Hood Canal 5 site, S shore of Hood Canal near Hoodsport",WADOH Hood Canal 5,5G0F4703::cruc-tyni,US/Pacific,47.4206,-123.1302,,0,,0,Washington,,Puget Sound,WADOH,http://www.doh.wa.gov,State,Decagon,http://www.decagon.com,http://www.doh.wa.gov/CommunityandEnvironment/Shellfish/CommercialShellfish/ForIndustryMembers/VibrioRuleRequirements/TemperatureData,true,,shore_station_default,all,offline-temporary,1446156000
WADOH_Burley,SISO,Fixed Shore Platform,"Burley Lagoon site, N end of Henderson Bay",WADOH Burley Lagoon,5G0F4694::ecfac-jopy,US/Pacific,47.3836,-122.6374,,0,,0,Washington,,Puget Sound,WADOH,http://www.doh.wa.gov,State,Decagon,http://www.decagon.com,http://www.doh.wa.gov/CommunityandEnvironment/Shellfish/CommercialShellfish/ForIndustryMembers/VibrioRuleRequirements/TemperatureData,true,,shore_station_default,all,offline-temporary,1446156000
WADOH_Hammersley1,SISO,Fixed Shore Platform,"Hammersley Inlet site, S shore near Skookum Point",WADOH Hammersley Inlet,5G0E3695::drouk-rozca,US/Pacific,47.2042,-123.0179,,0,,0,Washington,,Puget Sound,WADOH,http://www.doh.wa.gov,State,Decagon,http://www.decagon.com,http://www.doh.wa.gov/CommunityandEnvironment/Shellfish/CommercialShellfish/ForIndustryMembers/VibrioRuleRequirements/TemperatureData,true,,shore_station_default,all,offline-temporary,1446156000
WADOH_Hoodcanal1,SISO,Fixed Shore Platform,"Hood Canal 1 site, W shore of Hood Canal near Case Shoal",WADOH Hood Canal 1,5G0E3694::duft-draf,US/Pacific,47.849,-122.6837,,0,,0,Washington,,Puget Sound,WADOH,http://www.doh.wa.gov,State,Decagon,http://www.decagon.com,http://www.doh.wa.gov/CommunityandEnvironment/Shellfish/CommercialShellfish/ForIndustryMembers/VibrioRuleRequirements/TemperatureData,true,,shore_station_default,all,online,1452279600
NWFSC_ESPlapush,SISO,Buoy,IOOS ESP Biosensor TEST DEPLOYMENT,,NOAA_ESPFRIDAY_IMAGE,US/Pacific,47.7545,-122.3947,,0,,0,Washington,,Puget Sound,NWFSC-NOAA,http://www.nwfsc.noaa.gov/research/divisions/efs,Federal,NWFSC-NOAA,,http://www.nwfsc.noaa.gov/research/divisions/efs/microbes/harmful_algae/esp.cfm,true,,buoy_default,staging,online,1437422400
WADOH_Eld,SISO,Fixed Shore Platform,"Eld Inlet site, W shore near Frye Cove Park",WADOH Eld Inlet,5G0F4702::napy-quew,US/Pacific,47.1246,-122.9622,,0,,0,Washington,,Puget Sound,WADOH,http://www.doh.wa.gov,State,Decagon,http://www.decagon.com,http://www.doh.wa.gov/CommunityandEnvironment/Shellfish/CommercialShellfish/ForIndustryMembers/VibrioRuleRequirements/TemperatureData,true,,shore_station_default,all,offline-temporary,1446156000
WADOH_TottenS,SISO,Fixed Shore Platform,"Totten Inlet site, S end in Oyster Bay",WADOH Totten Inlet S,5G0F4698::josh-wubee,US/Pacific,47.1282,-123.0186,,0,,0,Washington,,Puget Sound,WADOH,http://www.doh.wa.gov,State,Decagon,http://www.decagon.com,http://www.doh.wa.gov/CommunityandEnvironment/Shellfish/CommercialShellfish/ForIndustryMembers/VibrioRuleRequirements/TemperatureData,true,,shore_station_default,all,offline-temporary,1446156000
WADOH_Henderson,SISO,Fixed Shore Platform,"Henderson Inlet site, S end",WADOH Henderson Inlet,5G0F4686::dobi-eczy,US/Pacific,47.1147,-122.8308,,0,,0,Washington,,Puget Sound,WADOH,http://www.doh.wa.gov,State,Decagon,http://www.decagon.com,http://www.doh.wa.gov/CommunityandEnvironment/Shellfish/CommercialShellfish/ForIndustryMembers/VibrioRuleRequirements/TemperatureData,true,,shore_station_default,all,offline-temporary,1446156000
WADOH_Peale,SISO,Fixed Shore Platform,"Peale Passage site, W shore near Seafarm Cove",WADOH Peale Passage,5G0F4705::olfi-fabr,US/Pacific,47.2006,-122.9036,,0,,0,Washington,,Puget Sound,WADOH,http://www.doh.wa.gov,State,Decagon,http://www.decagon.com,http://www.doh.wa.gov/CommunityandEnvironment/Shellfish/CommercialShellfish/ForIndustryMembers/VibrioRuleRequirements/TemperatureData,true,,shore_station_default,all,offline-temporary,1446156000
OSU_Trinidad1,MLOC,Glider,"OSU NANOOS-CeNCOOS Seaglider, Trinidad Head Line",OSU Trinidad Glider,,US/Pacific,41.03,-127.17,,0,"-124.35,41.19::-129.99,40.86",0,California,,Eureka,OSU,http://ceoas.oregonstate.edu,Academic,NANOOS-OSU,http://gliderfs2.coas.oregonstate.edu/gliderweb/,http://gliderfs2.coas.oregonstate.edu/gliderweb/,false,,seaglider_default,all,online,1444777200
HCMAST_wq1,SISO,Fixed Shore Platform,Highline MaST Center,Highline MaST Center,,US/Pacific,47.3492,-122.3251,,0,,0,Washington,,Puget Sound,Highline-MaST,http://mast.highline.edu,Academic,Highline-MaST,http://mast.highline.edu,http://mast.highline.edu,true,,shore_station_default,staging,offline-temporary,1444932000
WSDOT_Ferry1,MLOC,Ferry,WSDOT Pt. Townsend / Coupeville Ferry,Pt. Townsend / Coupeville,,US/Pacific,48.1331,-122.7111,"-122.7607,48.1592::-122.6706,48.1592::-122.6706,48.1033::-122.7607,48.1033",0,"-122.6726,48.1589::-122.6719,48.1554::-122.6723,48.1534::-122.6735,48.1517::-122.6760,48.1497::-122.6799,48.1472::-122.6858,48.1444::-122.6925,48.1419::-122.7001,48.1390::-122.7056,48.1368::-122.7083,48.1354::-122.7100,48.1341::-122.7414,48.1083::-122.7443,48.1063::-122.7463,48.1053::-122.7483,48.1049::-122.7504,48.1050::-122.7525,48.1055::-122.7559,48.1082::-122.7600,48.1120",0,Washington,,Puget Sound,WA Departement of Ecology,http://www.ecy.wa.gov,State,APL-UW,http://apl.washington.edu/ferriesforscience,,false,,wa_ferry,all,online,0
OOI_CE04OSSM,SISO,Buoy,OR Offshore Surface Mooring,,CE04OSSM,US/Pacific,44.37,-124.95,,0,,0,Oregon,,"Newport, OOI Oregon Line",OOI,http://oceanobservatories.org,Academic,OOI,http://oceanobservatories.org/data-portal/,http://oceanobservatories.org/site/ce04ossm/,false,,buoy_default,all,offline-temporary,1455739200
OOI_CE04OSBP,SISO,Seabed Cabled Platform,OR Offshore Cabled Benthic Experiment Package,,CE04OSBP,US/Pacific,44.37,-124.95,,0,,0,Oregon,,"Newport, OOI Oregon Line",OOI,http://oceanobservatories.org,Academic,OOI,http://oceanobservatories.org/data-portal/,http://oceanobservatories.org/site/ce04osbp/,false,,seabed_sensor_venus_1,all,offline-temporary,1455739200
OOI_CE02SHSM,SISO,Buoy,OR Shelf Surface Mooring,,CE02SHSM,US/Pacific,44.64,-124.31,,0,,0,Oregon,,"Newport, OOI Oregon Line",OOI,http://oceanobservatories.org,Academic,OOI,http://oceanobservatories.org/data-portal/,http://oceanobservatories.org/site/ce02shsm/,false,,buoy_default,all,offline-temporary,1455739200
OOI_CE02SHBP,SISO,Seabed Cabled Platform,OR Shelf Cabled Benthic Experiment Package,,CE02SHBP,US/Pacific,44.64,-124.31,,0,,0,Oregon,,"Newport, OOI Oregon Line",OOI,http://oceanobservatories.org,Academic,OOI,http://oceanobservatories.org/data-portal/,http://oceanobservatories.org/site/ce02shbp/,false,,seabed_sensor_venus_1,all,offline-temporary,1455739200
OOI_CE01ISSM,SISO,Buoy,OR Inshore Surface Mooring,,CE01ISSM,US/Pacific,44.6585,-124.0957,,0,,0,Oregon,,"Newport, OOI Oregon Line",OOI,http://oceanobservatories.org,Academic,OOI,http://oceanobservatories.org/data-portal/,http://oceanobservatories.org/site/ce01issm/,false,,buoy_default,all,offline-temporary,1455739200
NWIC_Bellinghambay,SISO,Buoy,Se`lhaem Bellingham Bay buoy,NWIC Bellingham Bay,uwbb1,US/Pacific,48.7237,-122.5765,,0,,0,Washington,,"Bellingham Bay, Puget Sound",NWIC,http://www.nwic.edu,Academic,Soundnine,http://www.soundnine.com,http://www.washington.edu/news/2016/02/11/bellingham-bay-buoy-an-opportunity-to-observe-marine-waters-for-northwest-indian-college-world/,true,,buoy_default,all,online,1462348800
CDIP_46244,SISO,Buoy,"Station 46244 - Humboldt Bay, North Spit (168)",CDIP Humboldt Bay N,46244,US/Pacific,40.8883,-124.3567,,0,,0,California,,Eureka,CDIP-Scripps,http://cdip.ucsd.edu/,Academic,NDBC,,http://cdip.ucsd.edu/themes/s?u2=s:168:st:1&d2=p9,true,,buoy_default,all,online,1455498000
HAKAI_Quadra1,SISO,Fixed Shore Platform,Quadra Island Field Station at Hyacinthe Bay,Hakai Quadra Island,Quadra/quadra,US/Pacific,50.116,-125.222,,0,,0,British Columbia,,"Sutil Channel, Strait of Georgia",Hakai Institute,http://www.hakai.org,Academic,Hakai,http://www.hakai.org,https://www.hakai.org/blog/science-coastal-margin/meet-burke-o-lator,true,,shore_station_default,all,online,1460489400
